{
  "generatedAt": "2026-05-28T21:00:26.988Z",
  "sourceFile": "Mobile Camera Locations - April 2026",
  "sourceUrl": "data/latest-mobile-camera-locations.xlsx",
  "upstreamSourceUrl": "https://www.vic.gov.au/sites/default/files/2026-03/Mobile-Camera-Locations-April-2026.xlsx",
  "period": "April 2026",
  "count": 2252,
  "mappedCount": 2169,
  "unmappedCount": 83,
  "note": "Generated when a new mobile camera Excel file is loaded. Coordinates are approximate geocodes from road/suburb descriptions.",
  "locations": [
    {
      "id": "parer-road-airport-west-1539",
      "location": "Parer Road",
      "suburb": "Airport West",
      "query": "Parer Road, Airport West, Victoria, Australia",
      "lat": -37.724893,
      "lng": 144.8696478,
      "label": "Parer Road, Airport West, Melbourne, Victoria, 3042, Australia",
      "geocoder": "nominatim",
      "approximate": true,
      "geocodedAt": "2026-05-08T22:25:44.417Z"
    },
    {
      "id": "oakwood-road-albanvale-1502",
      "location": "Oakwood Road",
      "suburb": "Albanvale",
      "query": "Oakwood Road, Albanvale, Victoria, Australia",
      "lat": -37.7472116,
      "lng": 144.7697718,
      "label": "Oakwood Road, Albanvale, Melbourne, City of Brimbank, Victoria, 3021, Australia",
      "geocoder": "nominatim",
      "approximate": true,
      "geocodedAt": "2026-05-08T22:24:46.517Z"
    },
    {
      "id": "aughtie-drive-albert-park-49",
      "location": "Aughtie Drive",
      "suburb": "Albert Park",
      "query": "Aughtie Drive, Albert Park, Victoria, Australia",
      "lat": -37.8406469,
      "lng": 144.9635492,
      "label": "Aughtie Drive, Albert Park, Melbourne, Victoria, 3206, Australia",
      "geocoder": "nominatim",
      "approximate": true,
      "geocodedAt": "2026-05-08T21:46:26.555Z"
    },
    {
      "id": "beaconsfield-parade-albert-park-127",
      "location": "Beaconsfield Parade",
      "suburb": "Albert Park",
      "query": "Beaconsfield Parade, Albert Park, Victoria, Australia",
      "lat": -37.8457152,
      "lng": 144.9443896,
      "label": "Beaconsfield Parade, Albert Park, Melbourne, Victoria, 3206, Australia",
      "geocoder": "nominatim",
      "approximate": true,
      "geocodedAt": "2026-05-08T21:48:31.082Z"
    },
    {
      "id": "kerferd-road-albert-park-1019",
      "location": "Kerferd Road",
      "suburb": "Albert Park",
      "query": "Kerferd Road, Albert Park, Victoria, Australia",
      "lat": -37.8445953,
      "lng": 144.9562544,
      "label": "Kerferd Road, Albert Park, Melbourne, Victoria, 3206, Australia",
      "geocoder": "nominatim",
      "approximate": true,
      "geocodedAt": "2026-05-08T22:12:00.249Z"
    },
    {
      "id": "lakeside-drive-albert-park-1072",
      "location": "Lakeside Drive",
      "suburb": "Albert Park",
      "query": "Lakeside Drive, Albert Park, Victoria, Australia",
      "lat": -37.8373874,
      "lng": 144.9676304,
      "label": "Lakeside Drive, South Melbourne, Melbourne, Victoria, 3205, Australia",
      "geocoder": "nominatim",
      "approximate": true,
      "geocodedAt": "2026-05-08T22:13:25.089Z"
    },
    {
      "id": "montague-street-albert-park-1336",
      "location": "Montague Street",
      "suburb": "Albert Park",
      "query": "Montague Street, Albert Park, Victoria, Australia",
      "lat": -37.841397,
      "lng": 144.9560311,
      "label": "Montague Street, Albert Park, Melbourne, Victoria, 3206, Australia",
      "geocoder": "nominatim",
      "approximate": true,
      "geocodedAt": "2026-05-08T22:20:21.861Z"
    },
    {
      "id": "pickles-street-albert-park-1573",
      "location": "Pickles Street",
      "suburb": "Albert Park",
      "query": "Pickles Street, Albert Park, Victoria, Australia",
      "lat": -37.8428589,
      "lng": 144.9456525,
      "label": "Pickles Street, Albert Park, Melbourne, Victoria, 3206, Australia",
      "geocoder": "nominatim",
      "approximate": true,
      "geocodedAt": "2026-05-08T22:26:38.389Z"
    },
    {
      "id": "south-gippsland-highway-alberton-1852",
      "location": "South Gippsland Highway",
      "suburb": "Alberton",
      "query": "South Gippsland Highway, Alberton, Victoria, Australia",
      "lat": -38.6336199,
      "lng": 146.5724211,
      "label": "South Gippsland Highway, Gelliondale, Alberton, Victoria, 3971, Australia",
      "geocoder": "nominatim",
      "approximate": true,
      "geocodedAt": "2026-05-08T22:34:25.871Z"
    },
    {
      "id": "ballarat-road-albion-73",
      "location": "Ballarat Road",
      "suburb": "Albion",
      "query": "Ballarat Road, Albion, Victoria, Australia",
      "lat": -37.7763798,
      "lng": 144.822382,
      "label": "Ballarat Road, Albion, Melbourne, Victoria, 3020, Australia",
      "geocoder": "nominatim",
      "approximate": true,
      "geocodedAt": "2026-05-08T21:47:04.679Z"
    },
    {
      "id": "forrest-street-albion-643",
      "location": "Forrest Street",
      "suburb": "Albion",
      "query": "Forrest Street, Albion, Victoria, Australia",
      "lat": -37.7841708,
      "lng": 144.8158533,
      "label": "Forrest Street, Albion, Melbourne, Victoria, 3020, Australia",
      "geocoder": "nominatim",
      "approximate": true,
      "geocodedAt": "2026-05-08T22:02:10.413Z"
    },
    {
      "id": "sydney-street-albion-1950",
      "location": "Sydney Street",
      "suburb": "Albion",
      "query": "Sydney Street, Albion, Victoria, Australia",
      "lat": -37.7791204,
      "lng": 144.822938,
      "label": "Sydney Street, Albion, Melbourne, Victoria, 3020, Australia",
      "geocoder": "nominatim",
      "approximate": true,
      "geocodedAt": "2026-05-08T22:37:01.758Z"
    },
    {
      "id": "aitken-street-alexandra-7",
      "location": "Aitken Street",
      "suburb": "Alexandra",
      "query": "Aitken Street, Alexandra, Victoria, Australia",
      "lat": -37.1878996,
      "lng": 145.7041689,
      "label": "Maroondah Highway, Alexandra, Victoria, 3714, Australia",
      "geocoder": "nominatim",
      "approximate": true,
      "geocodedAt": "2026-05-08T21:45:19.385Z"
    },
    {
      "id": "u-t-creek-road-alexandra-2031",
      "location": "U T Creek Road",
      "suburb": "Alexandra",
      "query": "U T Creek Road, Alexandra, Victoria, Australia",
      "lat": -37.1945984,
      "lng": 145.7812941,
      "label": "UT Creek Road, Devils River, Alexandra, Victoria, 3714, Australia",
      "geocoder": "nominatim",
      "approximate": true,
      "geocodedAt": "2026-05-08T22:39:10.725Z"
    },
    {
      "id": "princes-highway-allansford-1680",
      "location": "Princes Highway",
      "suburb": "Allansford",
      "query": "Princes Highway, Allansford, Victoria, Australia",
      "lat": -38.38816,
      "lng": 142.5642526,
      "label": "Princes Highway, Allansford, Victoria, 3277, Australia",
      "geocoder": "nominatim",
      "approximate": true,
      "geocodedAt": "2026-05-08T22:29:33.791Z"
    },
    {
      "id": "grange-road-alphington-770",
      "location": "Grange Road",
      "suburb": "Alphington",
      "query": "Grange Road, Alphington, Victoria, Australia",
      "lat": -37.7812938,
      "lng": 145.0247869,
      "label": "Grange Road, Alphington, Melbourne, Victoria, 3078, Australia",
      "geocoder": "nominatim",
      "approximate": true,
      "geocodedAt": "2026-05-08T22:05:31.191Z"
    },
    {
      "id": "blyth-street-altona-190",
      "location": "Blyth Street",
      "suburb": "Altona",
      "query": "Blyth Street, Altona, Victoria, Australia",
      "lat": -37.8679003,
      "lng": 144.8226206,
      "label": "Blyth Street, Altona, Melbourne, Victoria, 3018, Australia",
      "geocoder": "nominatim",
      "approximate": true,
      "geocodedAt": "2026-05-08T21:50:11.726Z"
    },
    {
      "id": "civic-parade-altona-400",
      "location": "Civic Parade",
      "suburb": "Altona",
      "query": "Civic Parade, Altona, Victoria, Australia",
      "lat": -37.8633208,
      "lng": 144.8112741,
      "label": "Civic Parade, Altona, Melbourne, Victoria, 3018, Australia",
      "geocoder": "nominatim",
      "approximate": true,
      "geocodedAt": "2026-05-08T21:55:45.645Z"
    },
    {
      "id": "esplanade-altona-602",
      "location": "Esplanade",
      "suburb": "Altona",
      "query": "Esplanade, Altona, Victoria, Australia",
      "lat": -37.8732864,
      "lng": 144.8173866,
      "label": "Esplanade, Altona, Melbourne, Victoria, 3018, Australia",
      "geocoder": "nominatim",
      "approximate": true,
      "geocodedAt": "2026-05-08T22:01:05.203Z"
    },
    {
      "id": "kororoit-creek-road-altona-1058",
      "location": "Kororoit Creek Road",
      "suburb": "Altona",
      "query": "Kororoit Creek Road, Altona, Victoria, Australia",
      "lat": -37.8492061,
      "lng": 144.8406953,
      "label": "Kororoit Creek Road, Altona, Melbourne, Victoria, 3018, Australia",
      "geocoder": "nominatim",
      "approximate": true,
      "geocodedAt": "2026-05-08T22:13:02.598Z"
    },
    {
      "id": "maidstone-street-altona-1140",
      "location": "Maidstone Street",
      "suburb": "Altona",
      "query": "Maidstone Street, Altona, Victoria, Australia",
      "lat": -37.8558118,
      "lng": 144.8091895,
      "label": "Maidstone Street, Altona, Melbourne, Victoria, 3018, Australia",
      "geocoder": "nominatim",
      "approximate": true,
      "geocodedAt": "2026-05-08T22:15:13.022Z"
    },
    {
      "id": "central-avenue-altona-meadows-360",
      "location": "Central Avenue",
      "suburb": "Altona Meadows",
      "query": "Central Avenue, Altona Meadows, Victoria, Australia",
      "lat": -37.8702884,
      "lng": 144.760921,
      "label": "Central Avenue, Altona Meadows, Melbourne, Victoria, 3028, Australia",
      "geocoder": "nominatim",
      "approximate": true,
      "geocodedAt": "2026-05-08T21:54:44.227Z"
    },
    {
      "id": "kiora-street-altona-meadows-1051",
      "location": "Kiora Street",
      "suburb": "Altona Meadows",
      "query": "Kiora Street, Altona Meadows, Victoria, Australia",
      "lat": -37.865894,
      "lng": 144.7760349,
      "label": "Kiora Street, Altona Meadows, Melbourne, Victoria, 3028, Australia",
      "geocoder": "nominatim",
      "approximate": true,
      "geocodedAt": "2026-05-08T22:12:51.425Z"
    },
    {
      "id": "victoria-street-altona-meadows-2054",
      "location": "Victoria Street",
      "suburb": "Altona Meadows",
      "query": "Victoria Street, Altona Meadows, Victoria, Australia",
      "lat": -37.8865368,
      "lng": 144.7758215,
      "label": "Victoria Street, Altona Green, Altona Meadows, Melbourne, Victoria, 3028, Australia",
      "geocoder": "nominatim",
      "approximate": true,
      "geocodedAt": "2026-05-08T22:39:49.458Z"
    },
    {
      "id": "millers-road-altona-1318",
      "location": "Millers Road",
      "suburb": "Altona",
      "query": "Millers Road, Altona, Victoria, Australia",
      "lat": -37.8655936,
      "lng": 144.8389505,
      "label": "Millers Road, Altona, Melbourne, Victoria, 3018, Australia",
      "geocoder": "nominatim",
      "approximate": true,
      "geocodedAt": "2026-05-08T22:19:53.180Z"
    },
    {
      "id": "blackshaws-road-altona-north-185",
      "location": "Blackshaws Road",
      "suburb": "Altona North",
      "query": "Blackshaws Road, Altona North, Victoria, Australia",
      "lat": -37.8275909,
      "lng": 144.8295969,
      "label": "Blackshaws Road, Altona North, Melbourne, Victoria, 3025, Australia",
      "geocoder": "nominatim",
      "approximate": true,
      "geocodedAt": "2026-05-08T21:50:02.833Z"
    },
    {
      "id": "dohertys-road-altona-north-513",
      "location": "Dohertys Road",
      "suburb": "Altona North",
      "query": "Dohertys Road, Altona North, Victoria, Australia",
      "lat": -37.8314758,
      "lng": 144.8249954,
      "label": "Dohertys Road, Altona North, Melbourne, Victoria, 3025, Australia",
      "geocoder": "nominatim",
      "approximate": true,
      "geocodedAt": "2026-05-08T21:58:45.449Z"
    },
    {
      "id": "grieve-parade-altona-north-811",
      "location": "Grieve Parade",
      "suburb": "Altona North",
      "query": "Grieve Parade, Altona North, Victoria, Australia",
      "lat": -37.8299997,
      "lng": 144.8269995,
      "label": "Grieve Parade, Altona North, Melbourne, Victoria, 3025, Australia",
      "geocoder": "nominatim",
      "approximate": true,
      "geocodedAt": "2026-05-08T22:06:34.477Z"
    },
    {
      "id": "mason-street-altona-north-1222",
      "location": "Mason Street",
      "suburb": "Altona North",
      "query": "Mason Street, Altona North, Victoria, Australia",
      "lat": -37.8401865,
      "lng": 144.8634382,
      "label": "Mason Street, Altona North, Melbourne, Victoria, 3025, Australia",
      "geocoder": "nominatim",
      "approximate": true,
      "geocodedAt": "2026-05-08T22:17:21.673Z"
    },
    {
      "id": "mcintosh-road-altona-north-1237",
      "location": "McIntosh Road",
      "suburb": "Altona North",
      "query": "McIntosh Road, Altona North, Victoria, Australia",
      "lat": -37.8386751,
      "lng": 144.8603331,
      "label": "McIntosh Road, Altona North, Melbourne, Victoria, 3025, Australia",
      "geocoder": "nominatim",
      "approximate": true,
      "geocodedAt": "2026-05-08T22:17:45.467Z"
    },
    {
      "id": "millers-road-altona-north-1319",
      "location": "Millers Road",
      "suburb": "Altona North",
      "query": "Millers Road, Altona North, Victoria, Australia",
      "lat": -37.8438109,
      "lng": 144.8461741,
      "label": "Millers Road, Altona North, Melbourne, Victoria, 3025, Australia",
      "geocoder": "nominatim",
      "approximate": true,
      "geocodedAt": "2026-05-08T22:19:54.765Z"
    },
    {
      "id": "queen-street-altona-1702",
      "location": "Queen Street",
      "suburb": "Altona",
      "query": "Queen Street, Altona, Victoria, Australia",
      "lat": -37.8697061,
      "lng": 144.8254294,
      "label": "Queen Street, Altona, Melbourne, City of Hobsons Bay, Victoria, 3018, Australia",
      "geocoder": "nominatim",
      "approximate": true,
      "geocodedAt": "2026-05-08T22:30:12.291Z"
    },
    {
      "id": "queen-street-altona-1706",
      "location": "Queen Street",
      "suburb": "Altona",
      "query": "Queen Street, Altona, Victoria, Australia",
      "lat": -37.8697061,
      "lng": 144.8254294,
      "label": "Queen Street, Altona, Melbourne, City of Hobsons Bay, Victoria, 3018, Australia",
      "geocoder": "nominatim",
      "approximate": true,
      "geocodedAt": "2026-05-08T22:30:23.122Z"
    },
    {
      "id": "pyrenees-highway-amphitheatre-1697",
      "location": "Pyrenees Highway",
      "suburb": "Amphitheatre",
      "query": "Pyrenees Highway, Amphitheatre, Victoria, Australia",
      "lat": -37.1979437,
      "lng": 143.3297192,
      "label": "Pyrenees Highway, Elmhurst, Amphitheatre, Victoria, 3468, Australia",
      "geocoder": "nominatim",
      "approximate": true,
      "geocodedAt": "2026-05-08T22:30:01.425Z"
    },
    {
      "id": "bass-highway-anderson-106",
      "location": "Bass Highway",
      "suburb": "Anderson",
      "query": "Bass Highway, Anderson, Victoria, Australia",
      "lat": -38.5172578,
      "lng": 145.4484158,
      "label": "Bass Highway, Anderson, Victoria, 3995, Australia",
      "geocoder": "nominatim",
      "approximate": true,
      "geocodedAt": "2026-05-08T21:47:56.658Z"
    },
    {
      "id": "great-ocean-road-anglesea-793",
      "location": "Great Ocean  Road",
      "suburb": "Anglesea",
      "query": "Great Ocean  Road, Anglesea, Victoria, Australia",
      "lat": -38.3782828,
      "lng": 144.2121807,
      "label": "Great Ocean Road, Anglesea, Victoria, 3230, Australia",
      "geocoder": "nominatim",
      "approximate": true,
      "geocodedAt": "2026-05-08T22:06:06.579Z"
    },
    {
      "id": "great-ocean-road-apollo-bay-794",
      "location": "Great Ocean  Road",
      "suburb": "Apollo Bay",
      "query": "Great Ocean  Road, Apollo Bay, Victoria, Australia",
      "lat": -38.7390233,
      "lng": 143.5710434,
      "label": "Great Ocean Road, Glenaire, Apollo Bay, Victoria, 3233, Australia",
      "geocoder": "nominatim",
      "approximate": true,
      "geocodedAt": "2026-05-08T22:06:08.087Z"
    },
    {
      "id": "wimmera-highway-apsley-2209",
      "location": "Wimmera Highway",
      "suburb": "Apsley",
      "query": "Wimmera Highway, Apsley, Victoria, Australia",
      "lat": -37.0036801,
      "lng": 141.1644571,
      "label": "Wimmera Highway, Apsley, Edenhope, Victoria, 3318, Australia",
      "geocoder": "nominatim",
      "approximate": true,
      "geocodedAt": "2026-05-08T22:43:57.975Z"
    },
    {
      "id": "barkly-street-ararat-90",
      "location": "Barkly Street",
      "suburb": "Ararat",
      "query": "Barkly Street, Ararat, Victoria, Australia",
      "lat": -37.2837937,
      "lng": 142.9326826,
      "label": "Barkly Street, Ararat, Victoria, 3377, Australia",
      "geocoder": "nominatim",
      "approximate": true,
      "geocodedAt": "2026-05-08T21:47:31.500Z"
    },
    {
      "id": "barkly-street-west-ararat-93",
      "location": "Barkly Street West",
      "suburb": "Ararat",
      "query": "Barkly Street West, Ararat, Victoria, Australia",
      "lat": -37.2875168,
      "lng": 142.9170093,
      "label": "Ararat - Halls Gap Road, Ararat, Victoria, 3377, Australia",
      "geocoder": "nominatim",
      "approximate": true,
      "geocodedAt": "2026-05-08T21:47:35.788Z"
    },
    {
      "id": "campbell-street-ararat-337",
      "location": "Campbell Street",
      "suburb": "Ararat",
      "query": "Campbell Street, Ararat, Victoria, Australia",
      "lat": -37.2774292,
      "lng": 142.9393657,
      "label": "Pyrenees Highway, Ararat, Victoria, 3377, Australia",
      "geocoder": "nominatim",
      "approximate": true,
      "geocodedAt": "2026-05-08T21:54:06.794Z"
    },
    {
      "id": "elizabeth-street-ararat-582",
      "location": "Elizabeth Street",
      "suburb": "Ararat",
      "query": "Elizabeth Street, Ararat, Victoria, Australia",
      "lat": -37.2932412,
      "lng": 142.949269,
      "label": "Elizabeth Street, Ararat, Victoria, 3377, Australia",
      "geocoder": "nominatim",
      "approximate": true,
      "geocodedAt": "2026-05-08T22:00:34.872Z"
    },
    {
      "id": "grano-street-ararat-771",
      "location": "Grano Street",
      "suburb": "Ararat",
      "query": "Grano Street, Ararat, Victoria, Australia",
      "lat": -37.2810318,
      "lng": 142.9430294,
      "label": "Grano Street, Ararat, Rural City of Ararat, Victoria, 3377, Australia",
      "geocoder": "nominatim",
      "approximate": true,
      "geocodedAt": "2026-05-08T22:05:32.702Z"
    },
    {
      "id": "high-street-ararat-893",
      "location": "High Street",
      "suburb": "Ararat",
      "query": "High Street, Ararat, Victoria, Australia",
      "lat": -37.2824335,
      "lng": 142.9302305,
      "label": "High Street, Ararat, Victoria, 3377, Australia",
      "geocoder": "nominatim",
      "approximate": true,
      "geocodedAt": "2026-05-08T22:08:42.335Z"
    },
    {
      "id": "lambert-street-ararat-1075",
      "location": "Lambert Street",
      "suburb": "Ararat",
      "query": "Lambert Street, Ararat, Victoria, Australia",
      "lat": -37.2786102,
      "lng": 142.9253858,
      "label": "Western Highway, Ararat, Victoria, 3377, Australia",
      "geocoder": "nominatim",
      "approximate": true,
      "geocodedAt": "2026-05-08T22:13:30.281Z"
    },
    {
      "id": "lowe-street-ararat-1117",
      "location": "Lowe Street",
      "suburb": "Ararat",
      "query": "Lowe Street, Ararat, Victoria, Australia",
      "lat": -37.2778467,
      "lng": 142.9333083,
      "label": "Lowe Street, Ararat, Victoria, 3377, Australia",
      "geocoder": "nominatim",
      "approximate": true,
      "geocodedAt": "2026-05-08T22:14:37.677Z"
    },
    {
      "id": "princes-street-ararat-1683",
      "location": "Princes Street",
      "suburb": "Ararat",
      "query": "Princes Street, Ararat, Victoria, Australia",
      "lat": -37.283945,
      "lng": 142.9394197,
      "label": "Princes Street, Ararat, Victoria, 3377, Australia",
      "geocoder": "nominatim",
      "approximate": true,
      "geocodedAt": "2026-05-08T22:29:38.613Z"
    },
    {
      "id": "pyrenees-highway-ararat-1698",
      "location": "Pyrenees Highway",
      "suburb": "Ararat",
      "query": "Pyrenees Highway, Ararat, Victoria, Australia",
      "lat": -37.2813777,
      "lng": 142.932362,
      "label": "Pyrenees Highway, Ararat, Victoria, 3377, Australia",
      "geocoder": "nominatim",
      "approximate": true,
      "geocodedAt": "2026-05-08T22:30:03.192Z"
    },
    {
      "id": "queen-street-ararat-1705",
      "location": "Queen Street",
      "suburb": "Ararat",
      "query": "Queen Street, Ararat, Victoria, Australia",
      "lat": -37.2896345,
      "lng": 142.9331332,
      "label": "Queen Street, Ararat, Victoria, 3377, Australia",
      "geocoder": "nominatim",
      "approximate": true,
      "geocodedAt": "2026-05-08T22:30:21.893Z"
    },
    {
      "id": "tatyoon-road-ararat-1960",
      "location": "Tatyoon Road",
      "suburb": "Ararat",
      "query": "Tatyoon Road, Ararat, Victoria, Australia",
      "lat": -37.2955211,
      "lng": 142.9365436,
      "label": "Tatyoon Road, Ararat, Victoria, 3377, Australia",
      "geocoder": "nominatim",
      "approximate": true,
      "geocodedAt": "2026-05-08T22:37:16.914Z"
    },
    {
      "id": "tobin-street-ararat-1992",
      "location": "Tobin Street",
      "suburb": "Ararat",
      "query": "Tobin Street, Ararat, Victoria, Australia",
      "lat": -37.2945473,
      "lng": 142.919617,
      "label": "Tobin Street, Ararat, Victoria, 3377, Australia",
      "geocoder": "nominatim",
      "approximate": true,
      "geocodedAt": "2026-05-08T22:38:08.537Z"
    },
    {
      "id": "view-point-street-ararat-2057",
      "location": "View Point Street",
      "suburb": "Ararat",
      "query": "View Point Street, Ararat, Victoria, Australia",
      "lat": -37.2826168,
      "lng": 142.925628,
      "label": "View Point Street, Ararat, Victoria, 3377, Australia",
      "geocoder": "nominatim",
      "approximate": true,
      "geocodedAt": "2026-05-08T22:39:54.686Z"
    },
    {
      "id": "western-highway-ararat-2150",
      "location": "Western Highway",
      "suburb": "Ararat",
      "query": "Western Highway, Ararat, Victoria, Australia",
      "lat": -37.2725447,
      "lng": 142.9220989,
      "label": "Western Highway, Ararat, Victoria, 3377, Australia",
      "geocoder": "nominatim",
      "approximate": true,
      "geocodedAt": "2026-05-08T22:42:25.172Z"
    },
    {
      "id": "goulburn-valley-freeway-arcadia-742",
      "location": "Goulburn Valley Freeway",
      "suburb": "Arcadia",
      "query": "Goulburn Valley Freeway, Arcadia, Victoria, Australia",
      "lat": -36.5337791,
      "lng": 145.367337,
      "label": "Goulburn Valley Freeway, Arcadia, Victoria, 3631, Australia",
      "geocoder": "nominatim",
      "approximate": true,
      "geocodedAt": "2026-05-08T22:04:47.671Z"
    },
    {
      "id": "murchison-violet-town-road-arcadia-south-1378",
      "location": "Murchison-Violet Town Road",
      "suburb": "Arcadia South",
      "query": "Murchison-Violet Town Road, Arcadia South, Victoria, Australia",
      "lat": -36.6122147,
      "lng": 145.3200746,
      "label": "Murchison - Violet Town Road, Arcadia South, Victoria, 3631, Australia",
      "geocoder": "nominatim",
      "approximate": true,
      "geocodedAt": "2026-05-08T22:21:28.503Z"
    },
    {
      "id": "ballarat-road-ardeer-70",
      "location": "Ballarat  Road",
      "suburb": "Ardeer",
      "query": "Ballarat  Road, Ardeer, Victoria, Australia",
      "lat": -37.773727,
      "lng": 144.8035396,
      "label": "Ballarat Road, Ardeer, Melbourne, Victoria, 3022, Australia",
      "geocoder": "nominatim",
      "approximate": true,
      "geocodedAt": "2026-05-08T21:46:59.920Z"
    },
    {
      "id": "forrest-street-ardeer-644",
      "location": "Forrest Street",
      "suburb": "Ardeer",
      "query": "Forrest Street, Ardeer, Victoria, Australia",
      "lat": -37.7834692,
      "lng": 144.8092791,
      "label": "Forrest Street, Ardeer, Melbourne, Victoria, 3022, Australia",
      "geocoder": "nominatim",
      "approximate": true,
      "geocodedAt": "2026-05-08T22:02:11.877Z"
    },
    {
      "id": "northern-highway-argyle-1486",
      "location": "Northern Highway",
      "suburb": "Argyle",
      "query": "Northern Highway, Argyle, Victoria, Australia",
      "lat": -36.9461758,
      "lng": 144.7315862,
      "label": "Northern Highway, Argyle, Heathcote, Victoria, 3523, Australia",
      "geocoder": "nominatim",
      "approximate": true,
      "geocodedAt": "2026-05-08T22:24:21.149Z"
    },
    {
      "id": "hampden-road-armadale-830",
      "location": "Hampden Road",
      "suburb": "Armadale",
      "query": "Hampden Road, Armadale, Victoria, Australia",
      "lat": -37.8587757,
      "lng": 145.0139466,
      "label": "Hampden Road, Armadale, Melbourne, Victoria, 3143, Australia",
      "geocoder": "nominatim",
      "approximate": true,
      "geocodedAt": "2026-05-08T22:07:04.388Z"
    },
    {
      "id": "wattletree-road-armadale-2104",
      "location": "Wattletree Road",
      "suburb": "Armadale",
      "query": "Wattletree Road, Armadale, Victoria, Australia",
      "lat": -37.8606921,
      "lng": 145.0154496,
      "label": "Wattletree Road, Armadale, Melbourne, Victoria, 3143, Australia",
      "geocoder": "nominatim",
      "approximate": true,
      "geocodedAt": "2026-05-08T22:41:10.137Z"
    },
    {
      "id": "warralily-boulevard-armstrong-creek-2088",
      "location": "Warralily Boulevard",
      "suburb": "Armstrong Creek",
      "query": "Warralily Boulevard, Armstrong Creek, Victoria, Australia",
      "lat": -38.2397318,
      "lng": 144.3515634,
      "label": "Warralily Boulevard, Warralily Coast, Armstrong Creek, Geelong, Victoria, 3217, Australia",
      "geocoder": "nominatim",
      "approximate": true,
      "geocodedAt": "2026-05-08T22:40:44.814Z"
    },
    {
      "id": "western-highway-armstrong-2152",
      "location": "Western Highway",
      "suburb": "Armstrong",
      "query": "Western Highway, Armstrong, Victoria, Australia",
      "lat": -37.225622,
      "lng": 142.8950417,
      "label": "Western Highway, Armstrong, Ararat, Victoria, 3377, Australia",
      "geocoder": "nominatim",
      "approximate": true,
      "geocodedAt": "2026-05-08T22:42:28.114Z"
    },
    {
      "id": "arthurs-creek-road-arthurs-creek-39",
      "location": "Arthurs Creek Road",
      "suburb": "Arthurs Creek",
      "query": "Arthurs Creek Road, Arthurs Creek, Victoria, Australia",
      "lat": -37.5701517,
      "lng": 145.1768586,
      "label": "Arthurs Creek Road, Arthurs Creek, Melbourne, Victoria, 3099, Australia",
      "geocoder": "nominatim",
      "approximate": true,
      "geocodedAt": "2026-05-08T21:46:10.828Z"
    },
    {
      "id": "epsom-barnadown-road-ascot-596",
      "location": "Epsom-Barnadown Road",
      "suburb": "Ascot",
      "query": "Epsom-Barnadown Road, Ascot, Victoria, Australia",
      "lat": -36.6974811,
      "lng": 144.3418127,
      "label": "Epsom-Barnadown Road, Ascot, Bendigo, City of Greater Bendigo, Victoria, 3551, Australia",
      "geocoder": "nominatim",
      "approximate": true,
      "geocodedAt": "2026-05-08T22:00:55.977Z"
    },
    {
      "id": "maryborough-road-ascot-1215",
      "location": "Maryborough Road",
      "suburb": "Ascot",
      "query": "Maryborough Road, Ascot, Victoria, Australia",
      "lat": -37.405015,
      "lng": 143.8016956,
      "label": "Ballarat - Maryborough Road, Blowhard, Ascot, Victoria, 3352, Australia",
      "geocoder": "nominatim",
      "approximate": true,
      "geocodedAt": "2026-05-08T22:17:10.601Z"
    },
    {
      "id": "racecourse-road-ascot-1710",
      "location": "Racecourse Road",
      "suburb": "Ascot",
      "query": "Racecourse Road, Ascot, Victoria, Australia",
      "lat": -36.7219326,
      "lng": 144.3242345,
      "label": "Racecourse Road, Ascot, Bendigo, Victoria, 3551, Australia",
      "geocoder": "nominatim",
      "approximate": true,
      "geocodedAt": "2026-05-08T22:30:39.592Z"
    },
    {
      "id": "taylor-street-ascot-1961",
      "location": "Taylor Street",
      "suburb": "Ascot",
      "query": "Taylor Street, Ascot, Victoria, Australia",
      "lat": -36.7102377,
      "lng": 144.3242848,
      "label": "Taylor Street, Ascot, Bendigo, Victoria, 3551, Australia",
      "geocoder": "nominatim",
      "approximate": true,
      "geocodedAt": "2026-05-08T22:37:18.449Z"
    },
    {
      "id": "ascot-vale-road-ascot-vale-43",
      "location": "Ascot Vale Road",
      "suburb": "Ascot Vale",
      "query": "Ascot Vale Road, Ascot Vale, Victoria, Australia",
      "lat": -37.7745589,
      "lng": 144.9235924,
      "label": "Ascot Vale Road, Ascot Vale, Melbourne, Victoria, 3032, Australia",
      "geocoder": "nominatim",
      "approximate": true,
      "geocodedAt": "2026-05-08T21:46:17.388Z"
    },
    {
      "id": "epsom-road-ascot-vale-595",
      "location": "Epsom Road",
      "suburb": "Ascot Vale",
      "query": "Epsom Road, Ascot Vale, Victoria, Australia",
      "lat": -37.7833654,
      "lng": 144.917448,
      "label": "Epsom Road, Ascot Vale, Melbourne, City of Moonee Valley, Victoria, 3032, Australia",
      "geocoder": "nominatim",
      "approximate": true,
      "geocodedAt": "2026-05-08T22:00:54.486Z"
    },
    {
      "id": "kent-street-ascot-vale-1013",
      "location": "Kent Street",
      "suburb": "Ascot Vale",
      "query": "Kent Street, Ascot Vale, Victoria, Australia",
      "lat": -37.7801312,
      "lng": 144.9242789,
      "label": "Kent Street, Ascot Vale, Melbourne, Victoria, 3032, Australia",
      "geocoder": "nominatim",
      "approximate": true,
      "geocodedAt": "2026-05-08T22:11:51.647Z"
    },
    {
      "id": "langs-road-ascot-vale-1078",
      "location": "Langs Road",
      "suburb": "Ascot Vale",
      "query": "Langs Road, Ascot Vale, Victoria, Australia",
      "lat": -37.7838618,
      "lng": 144.9059481,
      "label": "Langs Road, Ascot Vale, Melbourne, Victoria, 3032, Australia",
      "geocoder": "nominatim",
      "approximate": true,
      "geocodedAt": "2026-05-08T22:13:35.221Z"
    },
    {
      "id": "maribyrnong-road-ascot-vale-1191",
      "location": "Maribyrnong Road",
      "suburb": "Ascot Vale",
      "query": "Maribyrnong Road, Ascot Vale, Victoria, Australia",
      "lat": -37.7725152,
      "lng": 144.9235238,
      "label": "Maribyrnong Road, Ascot Vale, Melbourne, Victoria, 3032, Australia",
      "geocoder": "nominatim",
      "approximate": true,
      "geocodedAt": "2026-05-08T22:16:33.431Z"
    },
    {
      "id": "wells-road-aspendale-gardens-2116",
      "location": "Wells Road",
      "suburb": "Aspendale Gardens",
      "query": "Wells Road, Aspendale Gardens, Victoria, Australia",
      "lat": -38.0187483,
      "lng": 145.1160763,
      "label": "Wells Road, Aspendale Gardens, Melbourne, Victoria, 3195, Australia",
      "geocoder": "nominatim",
      "approximate": true,
      "geocodedAt": "2026-05-08T22:41:29.584Z"
    },
    {
      "id": "mickleham-road-attwood-1282",
      "location": "Mickleham Road",
      "suburb": "Attwood",
      "query": "Mickleham Road, Attwood, Victoria, Australia",
      "lat": -37.6607349,
      "lng": 144.8841331,
      "label": "Mickleham Road, Attwood, Melbourne, Victoria, 3049, Australia",
      "geocoder": "nominatim",
      "approximate": true,
      "geocodedAt": "2026-05-08T22:18:57.322Z"
    },
    {
      "id": "avenel-nagambie-rd-avenel-51",
      "location": "Avenel-Nagambie Rd",
      "suburb": "Avenel",
      "query": "Avenel-Nagambie Rd, Avenel, Victoria, Australia",
      "lat": -36.8893183,
      "lng": 145.225018,
      "label": "Bank Street, Avenel, Victoria, 3664, Australia",
      "geocoder": "nominatim",
      "approximate": true,
      "geocodedAt": "2026-05-08T21:46:29.758Z"
    },
    {
      "id": "avenel-nagambie-road-avenel-52",
      "location": "Avenel-Nagambie Road",
      "suburb": "Avenel",
      "query": "Avenel-Nagambie Road, Avenel, Victoria, Australia",
      "lat": -36.8922875,
      "lng": 145.230434,
      "label": "Bank Street, Avenel, Victoria, 3664, Australia",
      "geocoder": "nominatim",
      "approximate": true,
      "geocodedAt": "2026-05-08T21:46:31.412Z"
    },
    {
      "id": "bank-street-avenel-84",
      "location": "Bank Street",
      "suburb": "Avenel",
      "query": "Bank Street, Avenel, Victoria, Australia",
      "lat": -36.8922875,
      "lng": 145.230434,
      "label": "Bank Street, Avenel, Shire of Strathbogie, Victoria, 3664, Australia",
      "geocoder": "nominatim",
      "approximate": true,
      "geocodedAt": "2026-05-08T21:47:22.264Z"
    },
    {
      "id": "hume-freeway-avenel-957",
      "location": "Hume Freeway",
      "suburb": "Avenel",
      "query": "Hume Freeway, Avenel, Victoria, Australia",
      "lat": -36.9197125,
      "lng": 145.2232961,
      "label": "Hume Freeway, Mangalore, Avenel, Victoria, 3663, Australia",
      "geocoder": "nominatim",
      "approximate": true,
      "geocodedAt": "2026-05-08T22:10:23.455Z"
    },
    {
      "id": "livingstone-street-avenel-1099",
      "location": "Livingstone Street",
      "suburb": "Avenel",
      "query": "Livingstone Street, Avenel, Victoria, Australia",
      "lat": -36.9013304,
      "lng": 145.2335937,
      "label": "Livingstone Street, Avenel, Victoria, 3664, Australia",
      "geocoder": "nominatim",
      "approximate": true,
      "geocodedAt": "2026-05-08T22:14:08.809Z"
    },
    {
      "id": "high-street-avoca-899",
      "location": "High Street",
      "suburb": "Avoca",
      "query": "High Street, Avoca, Victoria, Australia",
      "lat": -37.0937245,
      "lng": 143.4754926,
      "label": "High Street, Avoca, Victoria, 3467, Australia",
      "geocoder": "nominatim",
      "approximate": true,
      "geocodedAt": "2026-05-08T22:08:52.690Z"
    },
    {
      "id": "military-road-avondale-heights-1315",
      "location": "Military Road",
      "suburb": "Avondale Heights",
      "query": "Military Road, Avondale Heights, Victoria, Australia",
      "lat": -37.7691664,
      "lng": 144.8649718,
      "label": "Military Road, Avondale Heights, Melbourne, Victoria, 3034, Australia",
      "geocoder": "nominatim",
      "approximate": true,
      "geocodedAt": "2026-05-08T22:19:48.708Z"
    },
    {
      "id": "templewood-crescent-avondale-heights-1969",
      "location": "Templewood Crescent",
      "suburb": "Avondale Heights",
      "query": "Templewood Crescent, Avondale Heights, Victoria, Australia",
      "lat": -37.7621035,
      "lng": 144.8623225,
      "label": "Templewood Crescent, Avondale Heights, Melbourne, Victoria, 3034, Australia",
      "geocoder": "nominatim",
      "approximate": true,
      "geocodedAt": "2026-05-08T22:37:31.601Z"
    },
    {
      "id": "midland-highway-avonmore-1312",
      "location": "MIDLAND Highway",
      "suburb": "Avonmore",
      "query": "MIDLAND Highway, Avonmore, Victoria, Australia",
      "lat": -36.5446799,
      "lng": 144.5757176,
      "label": "Midland Highway, Avonmore, Goornong, Victoria, 3557, Australia",
      "geocoder": "nominatim",
      "approximate": true,
      "geocodedAt": "2026-05-08T22:19:43.541Z"
    },
    {
      "id": "axe-creek-road-axe-creek-56",
      "location": "Axe Creek Road",
      "suburb": "Axe Creek",
      "query": "Axe Creek Road, Axe Creek, Victoria, Australia",
      "lat": -36.8732021,
      "lng": 144.3810929,
      "label": "Axe Creek Road, Axe Creek, Sedgwick, Victoria, 3551, Australia",
      "geocoder": "nominatim",
      "approximate": true,
      "geocodedAt": "2026-05-08T21:46:38.201Z"
    },
    {
      "id": "mcivor-highway-axedale-1239",
      "location": "McIvor Highway",
      "suburb": "Axedale",
      "query": "McIvor Highway, Axedale, Victoria, Australia",
      "lat": -36.7976582,
      "lng": 144.5540043,
      "label": "McIvor Highway, Knowsley, Axedale, Victoria, 3551, Australia",
      "geocoder": "nominatim",
      "approximate": true,
      "geocodedAt": "2026-05-08T22:17:48.630Z"
    },
    {
      "id": "geelong-bacchus-marsh-road-bacchus-marsh-678",
      "location": "Geelong-Bacchus Marsh Road",
      "suburb": "Bacchus Marsh",
      "query": "Geelong-Bacchus Marsh Road, Bacchus Marsh, Victoria, Australia",
      "lat": -37.6780788,
      "lng": 144.4348601,
      "label": "Grant Street, Bacchus Marsh, Shire of Moorabool, Victoria, 3340, Australia",
      "geocoder": "nominatim",
      "approximate": true,
      "geocodedAt": "2026-05-08T22:03:06.070Z"
    },
    {
      "id": "gisborne-road-bacchus-marsh-696",
      "location": "Gisborne Road",
      "suburb": "Bacchus Marsh",
      "query": "Gisborne Road, Bacchus Marsh, Victoria, Australia",
      "lat": -37.6638265,
      "lng": 144.4391991,
      "label": "Gisborne Road, Darley, Bacchus Marsh, Victoria, 3340, Australia",
      "geocoder": "nominatim",
      "approximate": true,
      "geocodedAt": "2026-05-08T22:03:35.224Z"
    },
    {
      "id": "the-avenue-of-honour-bacchus-marsh-1976",
      "location": "The Avenue of Honour",
      "suburb": "Bacchus Marsh",
      "query": "The Avenue of Honour, Bacchus Marsh, Victoria, Australia",
      "lat": -37.6790603,
      "lng": 144.4555044,
      "label": "The Fruits of Life, 411, Bacchus Marsh Road (The Avenue of Honour), Bacchus Marsh, Victoria, 3340, Australia",
      "geocoder": "nominatim",
      "approximate": true,
      "geocodedAt": "2026-05-08T22:37:43.192Z"
    },
    {
      "id": "western-freeway-bacchus-marsh-2131",
      "location": "Western Freeway",
      "suburb": "Bacchus Marsh",
      "query": "Western Freeway, Bacchus Marsh, Victoria, Australia",
      "lat": -37.6651604,
      "lng": 144.4478393,
      "label": "Western Freeway, Bacchus Marsh, Victoria, 3340, Australia",
      "geocoder": "nominatim",
      "approximate": true,
      "geocodedAt": "2026-05-08T22:41:53.873Z"
    },
    {
      "id": "don-road-badger-creek-514",
      "location": "Don Road",
      "suburb": "Badger Creek",
      "query": "Don Road, Badger Creek, Victoria, Australia",
      "lat": -37.6883773,
      "lng": 145.5462579,
      "label": "Don Road, Melbourne, Victoria, 3777, Australia",
      "geocoder": "nominatim",
      "approximate": true,
      "geocodedAt": "2026-05-08T21:58:47.200Z"
    },
    {
      "id": "peatlings-road-bagshot-1563",
      "location": "Peatlings Road",
      "suburb": "Bagshot",
      "query": "Peatlings Road, Bagshot, Victoria, Australia",
      "lat": -36.6636069,
      "lng": 144.401886,
      "label": "Peatlings Road, Bagshot, Bendigo, Victoria, 3551, Australia",
      "geocoder": "nominatim",
      "approximate": true,
      "geocodedAt": "2026-05-08T22:26:23.056Z"
    },
    {
      "id": "calvert-street-bairnsdale-331",
      "location": "Calvert Street",
      "suburb": "Bairnsdale",
      "query": "Calvert Street, Bairnsdale, Victoria, Australia",
      "lat": -37.8368929,
      "lng": 147.5991651,
      "label": "Calvert Street, Bairnsdale, Victoria, 3875, Australia",
      "geocoder": "nominatim",
      "approximate": true,
      "geocodedAt": "2026-05-08T21:53:57.069Z"
    },
    {
      "id": "macleod-street-bairnsdale-1134",
      "location": "Macleod Street",
      "suburb": "Bairnsdale",
      "query": "Macleod Street, Bairnsdale, Victoria, Australia",
      "lat": -37.8279595,
      "lng": 147.6285865,
      "label": "Macleod Street, Central Business District, Bairnsdale, Victoria, 3875, Australia",
      "geocoder": "nominatim",
      "approximate": true,
      "geocodedAt": "2026-05-08T22:15:04.228Z"
    },
    {
      "id": "main-street-bairnsdale-1156",
      "location": "Main Street",
      "suburb": "Bairnsdale",
      "query": "Main Street, Bairnsdale, Victoria, Australia",
      "lat": -37.8268042,
      "lng": 147.62655,
      "label": "Main Street, Central Business District, Bairnsdale, Victoria, 3875, Australia",
      "geocoder": "nominatim",
      "approximate": true,
      "geocodedAt": "2026-05-08T22:15:38.984Z"
    },
    {
      "id": "mckean-street-bairnsdale-1241",
      "location": "Mckean Street",
      "suburb": "Bairnsdale",
      "query": "Mckean Street, Bairnsdale, Victoria, Australia",
      "lat": -37.8180274,
      "lng": 147.6086155,
      "label": "McKean Street, Bairnsdale, Victoria, 3875, Australia",
      "geocoder": "nominatim",
      "approximate": true,
      "geocodedAt": "2026-05-08T22:17:51.477Z"
    },
    {
      "id": "mckean-street-bairnsdale-1242",
      "location": "McKean Street",
      "suburb": "Bairnsdale",
      "query": "McKean Street, Bairnsdale, Victoria, Australia",
      "lat": -37.8316723,
      "lng": 147.6059039,
      "label": "McKean Street, Bairnsdale, Victoria, 3875, Australia",
      "geocoder": "nominatim",
      "approximate": true,
      "geocodedAt": "2026-05-08T22:17:53.197Z"
    },
    {
      "id": "paynesville-road-bairnsdale-1560",
      "location": "Paynesville Road",
      "suburb": "Bairnsdale",
      "query": "Paynesville Road, Bairnsdale, Victoria, Australia",
      "lat": -37.8562911,
      "lng": 147.6458343,
      "label": "Paynesville Road, Bairnsdale, Victoria, 3875, Australia",
      "geocoder": "nominatim",
      "approximate": true,
      "geocodedAt": "2026-05-08T22:26:18.188Z"
    },
    {
      "id": "princes-highway-bairnsdale-1647",
      "location": "Princes Highway",
      "suburb": "Bairnsdale",
      "query": "Princes Highway, Bairnsdale, Victoria, Australia",
      "lat": -37.8264859,
      "lng": 147.6296925,
      "label": "Princes Highway, Central Business District, Bairnsdale, Victoria, 3875, Australia",
      "geocoder": "nominatim",
      "approximate": true,
      "geocodedAt": "2026-05-08T22:28:39.752Z"
    },
    {
      "id": "riverine-street-bairnsdale-1743",
      "location": "Riverine Street",
      "suburb": "Bairnsdale",
      "query": "Riverine Street, Bairnsdale, Victoria, Australia",
      "lat": -37.8235573,
      "lng": 147.6296575,
      "label": "Riverine Street, Bairnsdale, Victoria, 3875, Australia",
      "geocoder": "nominatim",
      "approximate": true,
      "geocodedAt": "2026-05-08T22:31:33.520Z"
    },
    {
      "id": "wallace-street-bairnsdale-2065",
      "location": "Wallace Street",
      "suburb": "Bairnsdale",
      "query": "Wallace Street, Bairnsdale, Victoria, Australia",
      "lat": -37.8240817,
      "lng": 147.6021479,
      "label": "Wallace Street, Bairnsdale, Victoria, 3875, Australia",
      "geocoder": "nominatim",
      "approximate": true,
      "geocodedAt": "2026-05-08T22:40:08.125Z"
    },
    {
      "id": "geelong-ballan-road-ballan-681",
      "location": "Geelong-Ballan Road",
      "suburb": "Ballan",
      "query": "Geelong-Ballan Road, Ballan, Victoria, Australia",
      "lat": -37.7746855,
      "lng": 144.2166962,
      "label": "Geelong-Ballan Road, Steiglitz, Ballan, Anakie, Victoria, 3213, Australia",
      "geocoder": "nominatim",
      "approximate": true,
      "geocodedAt": "2026-05-08T22:03:11.007Z"
    },
    {
      "id": "inglis-street-ballan-975",
      "location": "Inglis Street",
      "suburb": "Ballan",
      "query": "Inglis Street, Ballan, Victoria, Australia",
      "lat": -37.6003137,
      "lng": 144.250014,
      "label": "Inglis Street, Ballan, Shire of Moorabool, Victoria, 3342, Australia",
      "geocoder": "nominatim",
      "approximate": true,
      "geocodedAt": "2026-05-08T22:10:52.098Z"
    },
    {
      "id": "western-freeway-ballan-2132",
      "location": "Western Freeway",
      "suburb": "Ballan",
      "query": "Western Freeway, Ballan, Victoria, Australia",
      "lat": -37.5901731,
      "lng": 144.190249,
      "label": "Western Freeway, Ballan, Victoria, 3342, Australia",
      "geocoder": "nominatim",
      "approximate": true,
      "geocodedAt": "2026-05-08T22:41:55.609Z"
    },
    {
      "id": "creswick-road-ballarat-central-458",
      "location": "Creswick Road",
      "suburb": "Ballarat Central",
      "query": "Creswick Road, Ballarat Central, Victoria, Australia",
      "lat": -37.5554688,
      "lng": 143.854093,
      "label": "Creswick Road, Ballarat Central, Ballarat, City of Ballarat, Victoria, 3350, Australia",
      "geocoder": "nominatim",
      "approximate": true,
      "geocodedAt": "2026-05-08T21:57:17.604Z"
    },
    {
      "id": "chisholm-street-ballarat-388",
      "location": "Chisholm Street",
      "suburb": "Ballarat",
      "query": "Chisholm Street, Ballarat, Victoria, Australia",
      "lat": -37.5496329,
      "lng": 143.866523,
      "label": "Chisholm Street, Black Hill, Ballarat, Victoria, 3350, Australia",
      "geocoder": "nominatim",
      "approximate": true,
      "geocodedAt": "2026-05-08T21:55:26.788Z"
    },
    {
      "id": "creswick-road-ballarat-459",
      "location": "Creswick Road",
      "suburb": "Ballarat",
      "query": "Creswick Road, Ballarat, Victoria, Australia",
      "lat": -37.4957934,
      "lng": 143.8469278,
      "label": "Midland Highway, Mount Rowan, Ballarat, Victoria, 3352, Australia",
      "geocoder": "nominatim",
      "approximate": true,
      "geocodedAt": "2026-05-08T21:57:19.295Z"
    },
    {
      "id": "drummond-street-south-ballarat-530",
      "location": "Drummond Street South",
      "suburb": "Ballarat",
      "query": "Drummond Street South, Ballarat, Victoria, Australia",
      "lat": -37.5681956,
      "lng": 143.8460926,
      "label": "Drummond Street South, Ballarat Central, Ballarat, Victoria, 3350, Australia",
      "geocoder": "nominatim",
      "approximate": true,
      "geocodedAt": "2026-05-08T21:59:12.799Z"
    },
    {
      "id": "eureka-street-ballarat-east-606",
      "location": "Eureka Street",
      "suburb": "Ballarat East",
      "query": "Eureka Street, Ballarat East, Victoria, Australia",
      "lat": -37.567122,
      "lng": 143.8942957,
      "label": "Eureka Street, Ballarat East, Ballarat, Victoria, 3350, Australia",
      "geocoder": "nominatim",
      "approximate": true,
      "geocodedAt": "2026-05-08T22:01:11.638Z"
    },
    {
      "id": "york-street-ballarat-east-2249",
      "location": "York Street",
      "suburb": "Ballarat East",
      "query": "York Street, Ballarat East, Victoria, Australia",
      "lat": -37.5689587,
      "lng": 143.8736032,
      "label": "York Street, Ballarat East, Ballarat, Victoria, 3350, Australia",
      "geocoder": "nominatim",
      "approximate": true,
      "geocodedAt": "2026-05-08T22:45:00.850Z"
    },
    {
      "id": "humffray-street-north-ballarat-960",
      "location": "Humffray Street North",
      "suburb": "Ballarat",
      "query": "Humffray Street North, Ballarat, Victoria, Australia",
      "lat": -37.5532055,
      "lng": 143.8926227,
      "label": "Humffray Street North, Brown Hill, Ballarat, Victoria, 3350, Australia",
      "geocoder": "nominatim",
      "approximate": true,
      "geocodedAt": "2026-05-08T22:10:28.580Z"
    },
    {
      "id": "doveton-street-north-ballarat-north-525",
      "location": "Doveton Street North",
      "suburb": "Ballarat North",
      "query": "Doveton Street North, Ballarat North, Victoria, Australia",
      "lat": -37.5381131,
      "lng": 143.8594418,
      "label": "Doveton Street North, Ballarat North, Ballarat, Victoria, 3350, Australia",
      "geocoder": "nominatim",
      "approximate": true,
      "geocodedAt": "2026-05-08T21:59:04.412Z"
    },
    {
      "id": "howitt-street-ballarat-north-941",
      "location": "Howitt Street",
      "suburb": "Ballarat North",
      "query": "Howitt Street, Ballarat North, Victoria, Australia",
      "lat": -37.5446647,
      "lng": 143.8681653,
      "label": "Howitt Street, Ballarat North, Ballarat, Victoria, 3350, Australia",
      "geocoder": "nominatim",
      "approximate": true,
      "geocodedAt": "2026-05-08T22:09:57.909Z"
    },
    {
      "id": "peel-street-ballarat-1564",
      "location": "Peel Street",
      "suburb": "Ballarat",
      "query": "Peel Street, Ballarat, Victoria, Australia",
      "lat": -37.5508391,
      "lng": 143.8660236,
      "label": "Peel Street North, Black Hill, Ballarat, Victoria, 3350, Australia",
      "geocoder": "nominatim",
      "approximate": true,
      "geocodedAt": "2026-05-08T22:26:24.462Z"
    },
    {
      "id": "russell-street-ballarat-1766",
      "location": "Russell Street",
      "suburb": "Ballarat",
      "query": "Russell Street, Ballarat, Victoria, Australia",
      "lat": -37.5702959,
      "lng": 143.8334999,
      "label": "Russell Street, Newington, Ballarat, Victoria, 3350, Australia",
      "geocoder": "nominatim",
      "approximate": true,
      "geocodedAt": "2026-05-08T22:32:09.746Z"
    },
    {
      "id": "wendouree-parade-ballarat-2119",
      "location": "Wendouree Parade",
      "suburb": "Ballarat",
      "query": "Wendouree Parade, Ballarat, Victoria, Australia",
      "lat": -37.5518127,
      "lng": 143.8449325,
      "label": "Wendouree Parade, Lake Wendouree, Ballarat, Victoria, 3350, Australia",
      "geocoder": "nominatim",
      "approximate": true,
      "geocodedAt": "2026-05-08T22:41:34.655Z"
    },
    {
      "id": "coleraine-balmoral-road-balmoral-431",
      "location": "Coleraine-Balmoral Road",
      "suburb": "Balmoral",
      "query": "Coleraine-Balmoral Road, Balmoral, Victoria, Australia",
      "lat": -37.2505462,
      "lng": 141.8338315,
      "label": "Coleraine Road, Balmoral, Victoria, 3407, Australia",
      "geocoder": "nominatim",
      "approximate": true,
      "geocodedAt": "2026-05-08T21:56:34.532Z"
    },
    {
      "id": "balwyn-road-balwyn-79",
      "location": "Balwyn Road",
      "suburb": "Balwyn",
      "query": "Balwyn Road, Balwyn, Victoria, Australia",
      "lat": -37.8040705,
      "lng": 145.083026,
      "label": "Balwyn Road, Balwyn, Melbourne, Victoria, 3103, Australia",
      "geocoder": "nominatim",
      "approximate": true,
      "geocodedAt": "2026-05-08T21:47:14.211Z"
    },
    {
      "id": "belmore-road-balwyn-148",
      "location": "Belmore Road",
      "suburb": "Balwyn",
      "query": "Belmore Road, Balwyn, Victoria, Australia",
      "lat": -37.8041561,
      "lng": 145.1014232,
      "label": "Belmore Road, Balwyn East, Balwyn, Melbourne, Victoria, 3103, Australia",
      "geocoder": "nominatim",
      "approximate": true,
      "geocodedAt": "2026-05-08T21:49:03.293Z"
    },
    {
      "id": "bulleen-road-balwyn-north-260",
      "location": "Bulleen Road",
      "suburb": "Balwyn North",
      "query": "Bulleen Road, Balwyn North, Victoria, Australia",
      "lat": -37.7780179,
      "lng": 145.0783296,
      "label": "Bulleen Road, Balwyn North, Melbourne, Victoria, 3104, Australia",
      "geocoder": "nominatim",
      "approximate": true,
      "geocodedAt": "2026-05-08T21:52:04.685Z"
    },
    {
      "id": "greythorn-road-balwyn-north-810",
      "location": "Greythorn Road",
      "suburb": "Balwyn North",
      "query": "Greythorn Road, Balwyn North, Victoria, Australia",
      "lat": -37.8035759,
      "lng": 145.0971369,
      "label": "Greythorn Road, Balwyn North, Melbourne, Victoria, 3104, Australia",
      "geocoder": "nominatim",
      "approximate": true,
      "geocodedAt": "2026-05-08T22:06:33.010Z"
    },
    {
      "id": "union-road-balwyn-2034",
      "location": "Union Road",
      "suburb": "Balwyn",
      "query": "Union Road, Balwyn, Victoria, Australia",
      "lat": -37.8044912,
      "lng": 145.101398,
      "label": "Union Road, Balwyn East, Balwyn, Melbourne, Victoria, 3103, Australia",
      "geocoder": "nominatim",
      "approximate": true,
      "geocodedAt": "2026-05-08T22:39:15.747Z"
    },
    {
      "id": "winmalee-road-balwyn-2216",
      "location": "Winmalee Road",
      "suburb": "Balwyn",
      "query": "Winmalee Road, Balwyn, Victoria, Australia",
      "lat": -37.8068917,
      "lng": 145.0851007,
      "label": "Winmalee Road, Balwyn, Melbourne, Victoria, 3103, Australia",
      "geocoder": "nominatim",
      "approximate": true,
      "geocodedAt": "2026-05-08T22:44:08.624Z"
    },
    {
      "id": "anzac-parade-bandiana-26",
      "location": "Anzac Parade",
      "suburb": "Bandiana",
      "query": "Anzac Parade, Bandiana, Victoria, Australia",
      "lat": -36.1462464,
      "lng": 146.9254828,
      "label": "Anzac Parade, Bandiana, Victoria, 3691, Australia",
      "geocoder": "nominatim",
      "approximate": true,
      "geocodedAt": "2026-05-08T21:45:49.982Z"
    },
    {
      "id": "kiewa-valley-highway-bandiana-1027",
      "location": "Kiewa Valley Highway",
      "suburb": "Bandiana",
      "query": "Kiewa Valley Highway, Bandiana, Victoria, Australia",
      "lat": -36.1509928,
      "lng": 146.9309093,
      "label": "Kiewa Valley Highway, Bandiana, Victoria, 3691, Australia",
      "geocoder": "nominatim",
      "approximate": true,
      "geocodedAt": "2026-05-08T22:12:12.353Z"
    },
    {
      "id": "frankston-dandenong-road-bangholme-651",
      "location": "Frankston-Dandenong Road",
      "suburb": "Bangholme",
      "query": "Frankston-Dandenong Road, Bangholme, Victoria, Australia",
      "lat": -38.0649977,
      "lng": 145.2004892,
      "label": "Frankston-Dandenong Road, Bangholme, Melbourne, Victoria, 3175, Australia",
      "geocoder": "nominatim",
      "approximate": true,
      "geocodedAt": "2026-05-08T22:02:23.388Z"
    },
    {
      "id": "mcmahens-road-bangholme-1246",
      "location": "McMahens Road",
      "suburb": "Bangholme",
      "query": "McMahens Road, Bangholme, Victoria, Australia",
      "lat": -38.0452604,
      "lng": 145.1705288,
      "label": "McMahens Road, Bangholme, Melbourne, Victoria, 3175, Australia",
      "geocoder": "nominatim",
      "approximate": true,
      "geocodedAt": "2026-05-08T22:17:59.535Z"
    },
    {
      "id": "mornington-peninsula-freeway-bangholme-1352",
      "location": "Mornington Peninsula Freeway",
      "suburb": "Bangholme",
      "query": "Mornington Peninsula Freeway, Bangholme, Victoria, Australia",
      "lat": -38.0505215,
      "lng": 145.144436,
      "label": "Mornington Peninsula Freeway, Bangholme, Melbourne, Victoria, 3175, Australia",
      "geocoder": "nominatim",
      "approximate": true,
      "geocodedAt": "2026-05-08T22:20:46.835Z"
    },
    {
      "id": "thompson-road-bangholme-1985",
      "location": "Thompson Road",
      "suburb": "Bangholme",
      "query": "Thompson Road, Bangholme, Victoria, Australia",
      "lat": -38.0699406,
      "lng": 145.1781975,
      "label": "Thompson Road, Bangholme, Melbourne, Victoria, 3175, Australia",
      "geocoder": "nominatim",
      "approximate": true,
      "geocodedAt": "2026-05-08T22:37:57.672Z"
    },
    {
      "id": "worsley-road-bangholme-2239",
      "location": "Worsley Road",
      "suburb": "Bangholme",
      "query": "Worsley Road, Bangholme, Victoria, Australia",
      "lat": -38.0696914,
      "lng": 145.1801661,
      "label": "Worsley Road, Bangholme, Melbourne, Victoria, 3175, Australia",
      "geocoder": "nominatim",
      "approximate": true,
      "geocodedAt": "2026-05-08T22:44:44.381Z"
    },
    {
      "id": "geelong-road-bannockburn-677",
      "location": "Geelong Road",
      "suburb": "Bannockburn",
      "query": "Geelong Road, Bannockburn, Victoria, Australia",
      "lat": -38.0446862,
      "lng": 144.172967,
      "label": "Geelong Road, Bannockburn, Victoria, 3331, Australia",
      "geocoder": "nominatim",
      "approximate": true,
      "geocodedAt": "2026-05-08T22:03:04.420Z"
    },
    {
      "id": "midland-highway-bannockburn-1308",
      "location": "Midland Highway",
      "suburb": "Bannockburn",
      "query": "Midland Highway, Bannockburn, Victoria, Australia",
      "lat": -38.0478845,
      "lng": 144.1988267,
      "label": "Midland Highway, Bannockburn, Victoria, 3331, Australia",
      "geocoder": "nominatim",
      "approximate": true,
      "geocodedAt": "2026-05-08T22:19:37.371Z"
    },
    {
      "id": "baranduda-boulevard-baranduda-89",
      "location": "Baranduda Boulevard",
      "suburb": "Baranduda",
      "query": "Baranduda Boulevard, Baranduda, Victoria, Australia",
      "lat": -36.1750284,
      "lng": 146.9388174,
      "label": "Baranduda Boulevard, Baranduda, Victoria, 3691, Australia",
      "geocoder": "nominatim",
      "approximate": true,
      "geocodedAt": "2026-05-08T21:47:30.020Z"
    },
    {
      "id": "kiewa-valley-highway-baranduda-1030",
      "location": "Kiewa Valley Highway",
      "suburb": "Baranduda",
      "query": "Kiewa Valley Highway, Baranduda, Victoria, Australia",
      "lat": -36.1791986,
      "lng": 146.9530939,
      "label": "Kiewa Valley Highway, Baranduda Grove Estate, Baranduda, Victoria, 3691, Australia",
      "geocoder": "nominatim",
      "approximate": true,
      "geocodedAt": "2026-05-08T22:12:16.839Z"
    },
    {
      "id": "wodonga-yackandandah-road-baranduda-2221",
      "location": "Wodonga-Yackandandah Road",
      "suburb": "Baranduda",
      "query": "Wodonga-Yackandandah Road, Baranduda, Victoria, Australia",
      "lat": -36.1800238,
      "lng": 146.9531047,
      "label": "Wodonga-Yackandandah Road, Baranduda Grove Estate, Baranduda, City of Wodonga, Victoria, 3691, Australia",
      "geocoder": "nominatim",
      "approximate": true,
      "geocodedAt": "2026-05-08T22:44:16.198Z"
    },
    {
      "id": "midland-highway-barjarg-1300",
      "location": "Midland Highway",
      "suburb": "Barjarg",
      "query": "Midland Highway, Barjarg, Victoria, Australia",
      "lat": -36.9581267,
      "lng": 146.0016352,
      "label": "Midland Highway, Barjarg, Victoria, 3723, Australia",
      "geocoder": "nominatim",
      "approximate": true,
      "geocodedAt": "2026-05-08T22:19:25.391Z"
    },
    {
      "id": "murray-valley-highway-barnawartha-1392",
      "location": "Murray Valley Highway",
      "suburb": "Barnawartha",
      "query": "Murray Valley Highway, Barnawartha, Victoria, Australia",
      "lat": -36.0527161,
      "lng": 146.6613235,
      "label": "Murray Valley Highway, Browns Plains, Barnawartha, Victoria, 3688, Australia",
      "geocoder": "nominatim",
      "approximate": true,
      "geocodedAt": "2026-05-08T22:21:50.154Z"
    },
    {
      "id": "hume-freeway-barnawartha-north-951",
      "location": "Hume Freeway",
      "suburb": "Barnawartha North",
      "query": "Hume Freeway, Barnawartha North, Victoria, Australia",
      "lat": -36.08085,
      "lng": 146.7793535,
      "label": "Hume Freeway, Barnawartha North, Victoria, 3691, Australia",
      "geocoder": "nominatim",
      "approximate": true,
      "geocodedAt": "2026-05-08T22:10:14.600Z"
    },
    {
      "id": "murray-valley-highway-barnawartha-north-1385",
      "location": "Murray Valley Highway",
      "suburb": "Barnawartha North",
      "query": "Murray Valley Highway, Barnawartha North, Victoria, Australia",
      "lat": -36.0815854,
      "lng": 146.7271018,
      "label": "Murray Valley Highway, Barnawartha North, Victoria, 3691, Australia",
      "geocoder": "nominatim",
      "approximate": true,
      "geocodedAt": "2026-05-08T22:21:39.300Z"
    },
    {
      "id": "colac-lavers-hill-road-barongarook-428",
      "location": "Colac-Lavers Hill Road",
      "suburb": "Barongarook",
      "query": "Colac-Lavers Hill Road, Barongarook, Victoria, Australia",
      "lat": -38.4456688,
      "lng": 143.5694318,
      "label": "Colac-Lavers Hill Road, Barongarook West, Victoria, 3249, Australia",
      "geocoder": "nominatim",
      "approximate": true,
      "geocodedAt": "2026-05-08T21:56:29.404Z"
    },
    {
      "id": "birregurra-forrest-road-barwon-downs-175",
      "location": "Birregurra Forrest  Road",
      "suburb": "Barwon Downs",
      "query": "Birregurra Forrest  Road, Barwon Downs, Victoria, Australia",
      "lat": -38.4790838,
      "lng": 143.7500205,
      "label": "Birregurra - Forrest Road, Barwon Downs, Victoria, 3243, Australia",
      "geocoder": "nominatim",
      "approximate": true,
      "geocodedAt": "2026-05-08T21:49:47.286Z"
    },
    {
      "id": "golf-links-road-barwon-heads-734",
      "location": "Golf Links Road",
      "suburb": "Barwon Heads",
      "query": "Golf Links Road, Barwon Heads, Victoria, Australia",
      "lat": -38.2774031,
      "lng": 144.4880094,
      "label": "Golf Links Road, Barwon Heads, Geelong, Victoria, 3227, Australia",
      "geocoder": "nominatim",
      "approximate": true,
      "geocodedAt": "2026-05-08T22:04:34.791Z"
    },
    {
      "id": "ballan-road-batesford-67",
      "location": "Ballan Road",
      "suburb": "Batesford",
      "query": "Ballan Road, Batesford, Victoria, Australia",
      "lat": -38.0966604,
      "lng": 144.3050695,
      "label": "Ballan Road, Batesford, Victoria, 3213, Australia",
      "geocoder": "nominatim",
      "approximate": true,
      "geocodedAt": "2026-05-08T21:46:55.299Z"
    },
    {
      "id": "midland-highway-batesford-1291",
      "location": "Midland Highway",
      "suburb": "Batesford",
      "query": "Midland Highway, Batesford, Victoria, Australia",
      "lat": -38.1053418,
      "lng": 144.3202066,
      "label": "Ballarat Road, Batesford, Victoria, 3213, Australia",
      "geocoder": "nominatim",
      "approximate": true,
      "geocodedAt": "2026-05-08T22:19:11.545Z"
    },
    {
      "id": "baxter-tooradin-road-baxter-114",
      "location": "Baxter-Tooradin Road",
      "suburb": "Baxter",
      "query": "Baxter-Tooradin Road, Baxter, Victoria, Australia",
      "lat": -38.1960161,
      "lng": 145.1621006,
      "label": "Baxter - Tooradin Road, Baxter, Melbourne, Victoria, 3911, Australia",
      "geocoder": "nominatim",
      "approximate": true,
      "geocodedAt": "2026-05-08T21:48:09.259Z"
    },
    {
      "id": "sages-road-baxter-1771",
      "location": "Sages Road",
      "suburb": "Baxter",
      "query": "Sages Road, Baxter, Victoria, Australia",
      "lat": -38.1944204,
      "lng": 145.1472301,
      "label": "Sages Road, Baxter, Melbourne, Victoria, 3911, Australia",
      "geocoder": "nominatim",
      "approximate": true,
      "geocodedAt": "2026-05-08T22:32:17.864Z"
    },
    {
      "id": "koo-wee-rup-longwarry-road-bayles-1053",
      "location": "Koo Wee Rup-Longwarry Road",
      "suburb": "Bayles",
      "query": "Koo Wee Rup-Longwarry Road, Bayles, Victoria, Australia",
      "lat": -38.1777648,
      "lng": 145.568495,
      "label": "Koo Wee Rup - Longwarry Road, Bayles, Melbourne, Victoria, 3981, Australia",
      "geocoder": "nominatim",
      "approximate": true,
      "geocodedAt": "2026-05-08T22:12:54.426Z"
    },
    {
      "id": "canterbury-road-bayswater-north-340",
      "location": "Canterbury Road",
      "suburb": "Bayswater North",
      "query": "Canterbury Road, Bayswater North, Victoria, Australia",
      "lat": -37.8294802,
      "lng": 145.2772256,
      "label": "Canterbury Road, Bayswater North, Melbourne, Victoria, 3153, Australia",
      "geocoder": "nominatim",
      "approximate": true,
      "geocodedAt": "2026-05-08T21:54:11.941Z"
    },
    {
      "id": "beaconsfield-emerald-road-beaconsfield-128",
      "location": "Beaconsfield-Emerald Road",
      "suburb": "Beaconsfield",
      "query": "Beaconsfield-Emerald Road, Beaconsfield, Victoria, Australia",
      "lat": -38.044067,
      "lng": 145.3666901,
      "label": "Beaconsfield-Emerald Road, Beaconsfield, Melbourne, Victoria, 3807, Australia",
      "geocoder": "nominatim",
      "approximate": true,
      "geocodedAt": "2026-05-08T21:48:32.628Z"
    },
    {
      "id": "o-neil-road-beaconsfield-1523",
      "location": "O'Neil Road",
      "suburb": "Beaconsfield",
      "query": "O'Neil Road, Beaconsfield, Victoria, Australia",
      "lat": -38.0469075,
      "lng": 145.38291,
      "label": "O'Neil Road, Beaconsfield, Melbourne, Victoria, 3807, Australia",
      "geocoder": "nominatim",
      "approximate": true,
      "geocodedAt": "2026-05-08T22:25:19.223Z"
    },
    {
      "id": "woods-street-beaconsfield-2231",
      "location": "Woods Street",
      "suburb": "Beaconsfield",
      "query": "Woods Street, Beaconsfield, Victoria, Australia",
      "lat": -38.0457549,
      "lng": 145.3674785,
      "label": "Woods Street, Beaconsfield, Melbourne, Victoria, 3807, Australia",
      "geocoder": "nominatim",
      "approximate": true,
      "geocodedAt": "2026-05-08T22:44:31.774Z"
    },
    {
      "id": "high-street-beaufort-905",
      "location": "High Street",
      "suburb": "Beaufort",
      "query": "High Street, Beaufort, Victoria, Australia",
      "lat": -37.4332776,
      "lng": 143.3956943,
      "label": "High Street, Beaufort, Victoria, 3373, Australia",
      "geocoder": "nominatim",
      "approximate": true,
      "geocodedAt": "2026-05-08T22:09:02.485Z"
    },
    {
      "id": "neill-street-beaufort-1447",
      "location": "Neill Street",
      "suburb": "Beaufort",
      "query": "Neill Street, Beaufort, Victoria, Australia",
      "lat": -37.4288877,
      "lng": 143.374525,
      "label": "Neill Street, Beaufort, Victoria, 3373, Australia",
      "geocoder": "nominatim",
      "approximate": true,
      "geocodedAt": "2026-05-08T22:23:17.447Z"
    },
    {
      "id": "western-highway-beaufort-2140",
      "location": "Western Highway",
      "suburb": "Beaufort",
      "query": "Western Highway, Beaufort, Victoria, Australia",
      "lat": -37.4192893,
      "lng": 143.3413069,
      "label": "Western Highway, Beaufort, Victoria, 3373, Australia",
      "geocoder": "nominatim",
      "approximate": true,
      "geocodedAt": "2026-05-08T22:42:09.115Z"
    },
    {
      "id": "balcombe-road-beaumaris-65",
      "location": "Balcombe Road",
      "suburb": "Beaumaris",
      "query": "Balcombe Road, Beaumaris, Victoria, Australia",
      "lat": -37.9789397,
      "lng": 145.0457659,
      "label": "Balcombe Road, Seaview Shopping strip, Beaumaris, Melbourne, Victoria, 3193, Australia",
      "geocoder": "nominatim",
      "approximate": true,
      "geocodedAt": "2026-05-08T21:46:52.165Z"
    },
    {
      "id": "beach-road-beaumaris-120",
      "location": "Beach Road",
      "suburb": "Beaumaris",
      "query": "Beach Road, Beaumaris, Victoria, Australia",
      "lat": -37.9882968,
      "lng": 145.0476304,
      "label": "Beach Road, Beaumaris, Melbourne, Victoria, 3193, Australia",
      "geocoder": "nominatim",
      "approximate": true,
      "geocodedAt": "2026-05-08T21:48:19.437Z"
    },
    {
      "id": "princes-highway-belmont-1635",
      "location": "Princes Highway",
      "suburb": "Belmont",
      "query": "Princes Highway, Belmont, Victoria, Australia",
      "lat": -38.1878384,
      "lng": 144.3290919,
      "label": "High Street, Belmont, Geelong, Victoria, 3216, Australia",
      "geocoder": "nominatim",
      "approximate": true,
      "geocodedAt": "2026-05-08T22:28:20.094Z"
    },
    {
      "id": "benalla-winton-road-benalla-149",
      "location": "Benalla-Winton Road",
      "suburb": "Benalla",
      "query": "Benalla-Winton Road, Benalla, Victoria, Australia",
      "lat": -36.5515125,
      "lng": 145.9845817,
      "label": "Bridge Street East, Benalla West, Benalla, Victoria, 3672, Australia",
      "geocoder": "nominatim",
      "approximate": true,
      "geocodedAt": "2026-05-08T21:49:04.649Z"
    },
    {
      "id": "bridge-street-benalla-220",
      "location": "Bridge Street",
      "suburb": "Benalla",
      "query": "Bridge Street, Benalla, Victoria, Australia",
      "lat": -36.5549379,
      "lng": 145.9767336,
      "label": "Bridge Street, Benalla West, Benalla, Victoria, 3672, Australia",
      "geocoder": "nominatim",
      "approximate": true,
      "geocodedAt": "2026-05-08T21:51:00.195Z"
    },
    {
      "id": "goodwin-street-benalla-737",
      "location": "Goodwin Street",
      "suburb": "Benalla",
      "query": "Goodwin Street, Benalla, Victoria, Australia",
      "lat": -36.5498333,
      "lng": 145.9688347,
      "label": "Goodwin Street, Benalla West, Benalla, Victoria, 3672, Australia",
      "geocoder": "nominatim",
      "approximate": true,
      "geocodedAt": "2026-05-08T22:04:39.690Z"
    },
    {
      "id": "maginness-street-benalla-1138",
      "location": "Maginness Street",
      "suburb": "Benalla",
      "query": "Maginness Street, Benalla, Victoria, Australia",
      "lat": -36.5429723,
      "lng": 145.9815281,
      "label": "Maginness Street, Benalla West, Benalla, Victoria, 3672, Australia",
      "geocoder": "nominatim",
      "approximate": true,
      "geocodedAt": "2026-05-08T22:15:09.797Z"
    },
    {
      "id": "midland-highway-benalla-1289",
      "location": "Midland Highway",
      "suburb": "Benalla",
      "query": "Midland Highway, Benalla, Victoria, Australia",
      "lat": -36.4762513,
      "lng": 145.9478567,
      "label": "Midland Highway, Benalla, Victoria, 3672, Australia",
      "geocoder": "nominatim",
      "approximate": true,
      "geocodedAt": "2026-05-08T22:19:08.267Z"
    },
    {
      "id": "samaria-road-benalla-1778",
      "location": "Samaria Road",
      "suburb": "Benalla",
      "query": "Samaria Road, Benalla, Victoria, Australia",
      "lat": -36.6716129,
      "lng": 146.0238173,
      "label": "Samaria Road, Moorngag, Benalla, Victoria, 3672, Australia",
      "geocoder": "nominatim",
      "approximate": true,
      "geocodedAt": "2026-05-08T22:32:28.918Z"
    },
    {
      "id": "witt-street-benalla-2220",
      "location": "Witt Street",
      "suburb": "Benalla",
      "query": "Witt Street, Benalla, Victoria, Australia",
      "lat": -36.5358562,
      "lng": 146.0000421,
      "label": "Witt Street, Benalla, Victoria, 3672, Australia",
      "geocoder": "nominatim",
      "approximate": true,
      "geocodedAt": "2026-05-08T22:44:14.661Z"
    },
    {
      "id": "williamson-street-bendigo-2193",
      "location": "Williamson Street",
      "suburb": "Bendigo",
      "query": "Williamson Street, Bendigo, Victoria, Australia",
      "lat": -36.7687537,
      "lng": 144.2917635,
      "label": "Williamson Street, Kennington, Bendigo, Victoria, 3550, Australia",
      "geocoder": "nominatim",
      "approximate": true,
      "geocodedAt": "2026-05-08T22:43:32.810Z"
    },
    {
      "id": "bengworden-road-bengworden-164",
      "location": "Bengworden Road",
      "suburb": "Bengworden",
      "query": "Bengworden Road, Bengworden, Victoria, Australia",
      "lat": -37.9502529,
      "lng": 147.5197199,
      "label": "Bengworden Road, Goon Nure, Bairnsdale, Victoria, 3875, Australia",
      "geocoder": "nominatim",
      "approximate": true,
      "geocodedAt": "2026-05-08T21:49:28.679Z"
    },
    {
      "id": "centre-road-bentleigh-368",
      "location": "Centre Road",
      "suburb": "Bentleigh",
      "query": "Centre Road, Bentleigh, Victoria, Australia",
      "lat": -37.9205863,
      "lng": 145.0546984,
      "label": "Centre Road, Bentleigh East, Melbourne, Victoria, 3165, Australia",
      "geocoder": "nominatim",
      "approximate": true,
      "geocodedAt": "2026-05-08T21:54:56.476Z"
    },
    {
      "id": "centre-road-bentleigh-east-365",
      "location": "Centre Road",
      "suburb": "Bentleigh East",
      "query": "Centre Road, Bentleigh East, Victoria, Australia",
      "lat": -37.9239716,
      "lng": 145.0822456,
      "label": "Centre Road, Bentleigh East, Melbourne, Victoria, 3165, Australia",
      "geocoder": "nominatim",
      "approximate": true,
      "geocodedAt": "2026-05-08T21:54:52.093Z"
    },
    {
      "id": "east-boundary-road-bentleigh-east-549",
      "location": "East Boundary Road",
      "suburb": "Bentleigh East",
      "query": "East Boundary Road, Bentleigh East, Victoria, Australia",
      "lat": -37.9252403,
      "lng": 145.0583593,
      "label": "East Boundary Road, Bentleigh East, Melbourne, Victoria, 3165, Australia",
      "geocoder": "nominatim",
      "approximate": true,
      "geocodedAt": "2026-05-08T21:59:42.968Z"
    },
    {
      "id": "mackie-road-bentleigh-east-1133",
      "location": "Mackie Road",
      "suburb": "Bentleigh East",
      "query": "Mackie Road, Bentleigh East, Victoria, Australia",
      "lat": -37.9180797,
      "lng": 145.0742411,
      "label": "Mackie Road, Bentleigh East, Melbourne, Victoria, 3165, Australia",
      "geocoder": "nominatim",
      "approximate": true,
      "geocodedAt": "2026-05-08T22:15:02.526Z"
    },
    {
      "id": "warrigal-road-bentleigh-east-2092",
      "location": "Warrigal Road",
      "suburb": "Bentleigh East",
      "query": "Warrigal Road, Bentleigh East, Victoria, Australia",
      "lat": -37.9379746,
      "lng": 145.0796895,
      "label": "Warrigal Road, Bentleigh East, Melbourne, Victoria, 3165, Australia",
      "geocoder": "nominatim",
      "approximate": true,
      "geocodedAt": "2026-05-08T22:40:50.808Z"
    },
    {
      "id": "jasper-road-bentleigh-985",
      "location": "Jasper Road",
      "suburb": "Bentleigh",
      "query": "Jasper Road, Bentleigh, Victoria, Australia",
      "lat": -37.9266546,
      "lng": 145.0402004,
      "label": "Jasper Road, Bentleigh, Melbourne, Victoria, 3204, Australia",
      "geocoder": "nominatim",
      "approximate": true,
      "geocodedAt": "2026-05-08T22:11:07.951Z"
    },
    {
      "id": "murray-valley-highway-berringama-1400",
      "location": "Murray Valley Highway",
      "suburb": "Berringama",
      "query": "Murray Valley Highway, Berringama, Victoria, Australia",
      "lat": -36.2196614,
      "lng": 147.696181,
      "label": "Murray Valley Highway, Berringama, Victoria, 3691, Australia",
      "geocoder": "nominatim",
      "approximate": true,
      "geocodedAt": "2026-05-08T22:22:03.320Z"
    },
    {
      "id": "calder-highway-berriwillock-311",
      "location": "Calder Highway",
      "suburb": "Berriwillock",
      "query": "Calder Highway, Berriwillock, Victoria, Australia",
      "lat": -35.6375242,
      "lng": 142.998309,
      "label": "Calder Highway, Berriwillock, Victoria, 3531, Australia",
      "geocoder": "nominatim",
      "approximate": true,
      "geocodedAt": "2026-05-08T21:53:26.447Z"
    },
    {
      "id": "strzelecki-highway-berrys-creek-1911",
      "location": "Strzelecki Highway",
      "suburb": "Berrys Creek",
      "query": "Strzelecki Highway, Berrys Creek, Victoria, Australia",
      "lat": -38.4066766,
      "lng": 146.065266,
      "label": "Strzelecki Highway, Berrys Creek, Victoria, 3953, Australia",
      "geocoder": "nominatim",
      "approximate": true,
      "geocodedAt": "2026-05-08T22:36:00.615Z"
    },
    {
      "id": "clyde-road-berwick-409",
      "location": "Clyde Road",
      "suburb": "Berwick",
      "query": "Clyde Road, Berwick, Victoria, Australia",
      "lat": -38.0730085,
      "lng": 145.3358642,
      "label": "Clyde Road, Berwick, Melbourne, Victoria, 3806, Australia",
      "geocoder": "nominatim",
      "approximate": true,
      "geocodedAt": "2026-05-08T21:56:00.286Z"
    },
    {
      "id": "ernst-wanke-road-berwick-598",
      "location": "Ernst Wanke Road",
      "suburb": "Berwick",
      "query": "Ernst Wanke Road, Berwick, Victoria, Australia",
      "lat": -38.0175495,
      "lng": 145.3344264,
      "label": "Ernst Wanke Road, Berwick, Melbourne, Victoria, 3806, Australia",
      "geocoder": "nominatim",
      "approximate": true,
      "geocodedAt": "2026-05-08T22:00:58.820Z"
    },
    {
      "id": "homestead-road-berwick-926",
      "location": "Homestead Road",
      "suburb": "Berwick",
      "query": "Homestead Road, Berwick, Victoria, Australia",
      "lat": -38.0555223,
      "lng": 145.3387044,
      "label": "Homestead Road, Berwick, Melbourne, Victoria, 3806, Australia",
      "geocoder": "nominatim",
      "approximate": true,
      "geocodedAt": "2026-05-08T22:09:35.500Z"
    },
    {
      "id": "inglis-road-berwick-974",
      "location": "Inglis Road",
      "suburb": "Berwick",
      "query": "Inglis Road, Berwick, Victoria, Australia",
      "lat": -38.0266791,
      "lng": 145.3713743,
      "label": "Inglis Road, Berwick, Melbourne, Victoria, 3806, Australia",
      "geocoder": "nominatim",
      "approximate": true,
      "geocodedAt": "2026-05-08T22:10:50.533Z"
    },
    {
      "id": "lyall-road-berwick-1125",
      "location": "Lyall Road",
      "suburb": "Berwick",
      "query": "Lyall Road, Berwick, Victoria, Australia",
      "lat": -38.0285473,
      "lng": 145.34739,
      "label": "Lyall Road, Berwick, Melbourne, Victoria, 3806, Australia",
      "geocoder": "nominatim",
      "approximate": true,
      "geocodedAt": "2026-05-08T22:14:49.724Z"
    },
    {
      "id": "manuka-road-berwick-1188",
      "location": "Manuka Road",
      "suburb": "Berwick",
      "query": "Manuka Road, Berwick, Victoria, Australia",
      "lat": -38.0305547,
      "lng": 145.3658823,
      "label": "Manuka Road, Berwick, Melbourne, Victoria, 3806, Australia",
      "geocoder": "nominatim",
      "approximate": true,
      "geocodedAt": "2026-05-08T22:16:29.000Z"
    },
    {
      "id": "princes-highway-berwick-1648",
      "location": "Princes Highway",
      "suburb": "Berwick",
      "query": "Princes Highway, Berwick, Victoria, Australia",
      "lat": -38.0306914,
      "lng": 145.3365032,
      "label": "Princes Highway, Berwick, Melbourne, Victoria, 3806, Australia",
      "geocoder": "nominatim",
      "approximate": true,
      "geocodedAt": "2026-05-08T22:28:41.303Z"
    },
    {
      "id": "henty-highway-beulah-877",
      "location": "Henty Highway",
      "suburb": "Beulah",
      "query": "Henty Highway, Beulah, Victoria, Australia",
      "lat": -35.9810555,
      "lng": 142.4098379,
      "label": "Henty Highway, Beulah, Victoria, 3395, Australia",
      "geocoder": "nominatim",
      "approximate": true,
      "geocodedAt": "2026-05-08T22:08:18.351Z"
    },
    {
      "id": "murray-valley-highway-beverford-1406",
      "location": "Murray Valley Highway",
      "suburb": "Beverford",
      "query": "Murray Valley Highway, Beverford, Victoria, Australia",
      "lat": -35.2359601,
      "lng": 143.4810976,
      "label": "Murray Valley Highway, Beverford, Rural City of Swan Hill, Victoria, 3590, Australia",
      "geocoder": "nominatim",
      "approximate": true,
      "geocodedAt": "2026-05-08T22:22:12.301Z"
    },
    {
      "id": "lithgow-street-beveridge-1097",
      "location": "Lithgow Street",
      "suburb": "Beveridge",
      "query": "Lithgow Street, Beveridge, Victoria, Australia",
      "lat": -37.473867,
      "lng": 144.9780305,
      "label": "Lithgow Street, Beveridge, Victoria, 3753, Australia",
      "geocoder": "nominatim",
      "approximate": true,
      "geocodedAt": "2026-05-08T22:14:05.560Z"
    },
    {
      "id": "merriang-road-beveridge-1276",
      "location": "Merriang Road",
      "suburb": "Beveridge",
      "query": "Merriang Road, Beveridge, Victoria, Australia",
      "lat": -37.4596039,
      "lng": 145.0314124,
      "label": "Merriang Road, Beveridge, Melbourne, Victoria, Australia",
      "geocoder": "nominatim",
      "approximate": true,
      "geocodedAt": "2026-05-08T22:18:47.406Z"
    },
    {
      "id": "northern-highway-offramp-beveridge-1493",
      "location": "Northern Highway Offramp",
      "suburb": "Beveridge",
      "query": "Northern Highway Offramp, Beveridge, Victoria, Australia",
      "lat": -37.4495796,
      "lng": 144.9790847,
      "label": "Northern Highway Offramp, Beveridge, Victoria, 3753, Australia",
      "geocoder": "nominatim",
      "approximate": true,
      "geocodedAt": "2026-05-08T22:24:32.236Z"
    },
    {
      "id": "birchip-wycheproof-road-birchip-173",
      "location": "Birchip-Wycheproof Road",
      "suburb": "Birchip",
      "query": "Birchip-Wycheproof Road, Birchip, Victoria, Australia",
      "lat": -35.9903761,
      "lng": 142.963076,
      "label": "Birchip - Wycheproof Road, Narraport, Birchip, Victoria, 3483, Australia",
      "geocoder": "nominatim",
      "approximate": true,
      "geocodedAt": "2026-05-08T21:49:43.915Z"
    },
    {
      "id": "sunraysia-highway-birchip-1934",
      "location": "Sunraysia Highway",
      "suburb": "Birchip",
      "query": "Sunraysia Highway, Birchip, Victoria, Australia",
      "lat": -35.9782286,
      "lng": 142.8636733,
      "label": "Sunraysia Highway, Karyrie, Birchip, Victoria, 3483, Australia",
      "geocoder": "nominatim",
      "approximate": true,
      "geocodedAt": "2026-05-08T22:36:35.781Z"
    },
    {
      "id": "calder-highway-birdwoodton-301",
      "location": "Calder Highway",
      "suburb": "Birdwoodton",
      "query": "Calder Highway, Birdwoodton, Victoria, Australia",
      "lat": -34.196624,
      "lng": 142.0708354,
      "label": "Mena Road, Birdwoodton, Victoria, 3505, Australia",
      "geocoder": "nominatim",
      "approximate": true,
      "geocodedAt": "2026-05-08T21:53:09.986Z"
    },
    {
      "id": "cape-otway-road-birregurra-346",
      "location": "Cape Otway Road",
      "suburb": "Birregurra",
      "query": "Cape Otway Road, Birregurra, Victoria, Australia",
      "lat": -38.3418767,
      "lng": 143.8157953,
      "label": "Cape Otway Road, Birregurra, Victoria, 3242, Australia",
      "geocoder": "nominatim",
      "approximate": true,
      "geocodedAt": "2026-05-08T21:54:21.971Z"
    },
    {
      "id": "coolart-road-bittern-434",
      "location": "Coolart Road",
      "suburb": "Bittern",
      "query": "Coolart Road, Bittern, Victoria, Australia",
      "lat": -38.3493953,
      "lng": 145.1456702,
      "label": "Coolart Road, Bittern, Melbourne, Victoria, 3918, Australia",
      "geocoder": "nominatim",
      "approximate": true,
      "geocodedAt": "2026-05-08T21:56:39.476Z"
    },
    {
      "id": "frankston-flinders-road-bittern-653",
      "location": "Frankston-Flinders Road",
      "suburb": "Bittern",
      "query": "Frankston-Flinders Road, Bittern, Victoria, Australia",
      "lat": -38.3498255,
      "lng": 145.1608352,
      "label": "Frankston-Flinders Road, Bittern, Melbourne, Victoria, 3918, Australia",
      "geocoder": "nominatim",
      "approximate": true,
      "geocodedAt": "2026-05-08T22:02:26.602Z"
    },
    {
      "id": "myers-road-bittern-1436",
      "location": "Myers Road",
      "suburb": "Bittern",
      "query": "Myers Road, Bittern, Victoria, Australia",
      "lat": -38.3387817,
      "lng": 145.1652214,
      "label": "Myers Road, Bittern, Melbourne, Victoria, 3918, Australia",
      "geocoder": "nominatim",
      "approximate": true,
      "geocodedAt": "2026-05-08T22:23:00.782Z"
    },
    {
      "id": "chisholm-street-black-hill-387",
      "location": "Chisholm Street",
      "suburb": "Black Hill",
      "query": "Chisholm Street, Black Hill, Victoria, Australia",
      "lat": -37.5505387,
      "lng": 143.878132,
      "label": "Chisholm Street, Black Hill, Ballarat, Victoria, 3350, Australia",
      "geocoder": "nominatim",
      "approximate": true,
      "geocodedAt": "2026-05-08T21:55:25.284Z"
    },
    {
      "id": "beach-road-black-rock-119",
      "location": "Beach Road",
      "suburb": "Black Rock",
      "query": "Beach Road, Black Rock, Victoria, Australia",
      "lat": -37.9822934,
      "lng": 145.0205025,
      "label": "Beach Road, Black Rock, Melbourne, Victoria, 3193, Australia",
      "geocoder": "nominatim",
      "approximate": true,
      "geocodedAt": "2026-05-08T21:48:17.739Z"
    },
    {
      "id": "tulip-street-black-rock-2023",
      "location": "Tulip Street",
      "suburb": "Black Rock",
      "query": "Tulip Street, Black Rock, Victoria, Australia",
      "lat": -37.9622736,
      "lng": 145.0201287,
      "label": "Tulip Street, Black Rock, Melbourne, Victoria, 3193, Australia",
      "geocoder": "nominatim",
      "approximate": true,
      "geocodedAt": "2026-05-08T22:38:57.758Z"
    },
    {
      "id": "main-street-blackburn-1157",
      "location": "Main Street",
      "suburb": "Blackburn",
      "query": "Main Street, Blackburn, Victoria, Australia",
      "lat": -37.8316642,
      "lng": 145.1484318,
      "label": "Main Street, Blackburn, Melbourne, Victoria, 3130, Australia",
      "geocoder": "nominatim",
      "approximate": true,
      "geocodedAt": "2026-05-08T22:15:40.513Z"
    },
    {
      "id": "springfield-road-blackburn-north-1871",
      "location": "Springfield Road",
      "suburb": "Blackburn North",
      "query": "Springfield Road, Blackburn North, Victoria, Australia",
      "lat": -37.8095608,
      "lng": 145.1446127,
      "label": "Springfield Road, Blackburn North, Melbourne, Victoria, 3130, Australia",
      "geocoder": "nominatim",
      "approximate": true,
      "geocodedAt": "2026-05-08T22:34:56.078Z"
    },
    {
      "id": "surrey-road-blackburn-north-1941",
      "location": "Surrey Road",
      "suburb": "Blackburn North",
      "query": "Surrey Road, Blackburn North, Victoria, Australia",
      "lat": -37.8050946,
      "lng": 145.1588765,
      "label": "Surrey Road, Blackburn North, Melbourne, City of Whitehorse, Victoria, 3130, Australia",
      "geocoder": "nominatim",
      "approximate": true,
      "geocodedAt": "2026-05-08T22:36:47.674Z"
    },
    {
      "id": "blackburn-road-blackburn-south-182",
      "location": "Blackburn Road",
      "suburb": "Blackburn South",
      "query": "Blackburn Road, Blackburn South, Victoria, Australia",
      "lat": -37.833158,
      "lng": 145.1566614,
      "label": "Blackburn Road, Blackburn South, Melbourne, Victoria, 3130, Australia",
      "geocoder": "nominatim",
      "approximate": true,
      "geocodedAt": "2026-05-08T21:49:57.988Z"
    },
    {
      "id": "canterbury-road-blackburn-south-343",
      "location": "Canterbury Road",
      "suburb": "Blackburn South",
      "query": "Canterbury Road, Blackburn South, Victoria, Australia",
      "lat": -37.8314147,
      "lng": 145.1443331,
      "label": "Canterbury Road, Blackburn South, Melbourne, Victoria, 3130, Australia",
      "geocoder": "nominatim",
      "approximate": true,
      "geocodedAt": "2026-05-08T21:54:17.122Z"
    },
    {
      "id": "fulton-road-blackburn-south-661",
      "location": "Fulton Road",
      "suburb": "Blackburn South",
      "query": "Fulton Road, Blackburn South, Victoria, Australia",
      "lat": -37.842481,
      "lng": 145.1423221,
      "label": "Fulton Road, Blackburn South, Melbourne, Victoria, 3130, Australia",
      "geocoder": "nominatim",
      "approximate": true,
      "geocodedAt": "2026-05-08T22:02:39.722Z"
    },
    {
      "id": "middleborough-road-blackburn-south-1285",
      "location": "Middleborough Road",
      "suburb": "Blackburn South",
      "query": "Middleborough Road, Blackburn South, Victoria, Australia",
      "lat": -37.8436739,
      "lng": 145.1338892,
      "label": "Middleborough Road, Blackburn South, Melbourne, Victoria, 3130, Australia",
      "geocoder": "nominatim",
      "approximate": true,
      "geocodedAt": "2026-05-08T22:19:01.852Z"
    },
    {
      "id": "melbourne-road-blairgowrie-1261",
      "location": "Melbourne Road",
      "suburb": "Blairgowrie",
      "query": "Melbourne Road, Blairgowrie, Victoria, Australia",
      "lat": -38.3638043,
      "lng": 144.7642981,
      "label": "Melbourne Road, Blairgowrie, Melbourne, Victoria, 3942, Australia",
      "geocoder": "nominatim",
      "approximate": true,
      "geocodedAt": "2026-05-08T22:18:22.275Z"
    },
    {
      "id": "midland-highway-blampied-1307",
      "location": "Midland Highway",
      "suburb": "Blampied",
      "query": "Midland Highway, Blampied, Victoria, Australia",
      "lat": -37.3762386,
      "lng": 144.0239213,
      "label": "Midland Highway, Blampied, Victoria, 3364, Australia",
      "geocoder": "nominatim",
      "approximate": true,
      "geocodedAt": "2026-05-08T22:19:35.880Z"
    },
    {
      "id": "warneet-road-blind-bight-2085",
      "location": "Warneet Road",
      "suburb": "Blind Bight",
      "query": "Warneet Road, Blind Bight, Victoria, Australia",
      "lat": -38.2021329,
      "lng": 145.345784,
      "label": "Warneet Road, Melbourne, Victoria, 3980, Australia",
      "geocoder": "nominatim",
      "approximate": true,
      "geocodedAt": "2026-05-08T22:40:40.153Z"
    },
    {
      "id": "mallee-highway-boinka-1165",
      "location": "Mallee Highway",
      "suburb": "Boinka",
      "query": "Mallee Highway, Boinka, Victoria, Australia",
      "lat": -35.2044016,
      "lng": 141.5483813,
      "label": "Mallee Highway, Boinka, Victoria, 3490, Australia",
      "geocoder": "nominatim",
      "approximate": true,
      "geocodedAt": "2026-05-08T22:15:52.671Z"
    },
    {
      "id": "murray-valley-highway-bonegilla-1415",
      "location": "Murray Valley Highway",
      "suburb": "Bonegilla",
      "query": "Murray Valley Highway, Bonegilla, Victoria, Australia",
      "lat": -36.1406609,
      "lng": 147.0012188,
      "label": "Murray Valley Highway, Bonegilla, Victoria, 3691, Australia",
      "geocoder": "nominatim",
      "approximate": true,
      "geocodedAt": "2026-05-08T22:22:26.977Z"
    },
    {
      "id": "arnot-street-bonnie-doon-37",
      "location": "Arnot Street",
      "suburb": "Bonnie Doon",
      "query": "Arnot Street, Bonnie Doon, Victoria, Australia",
      "lat": -37.0238471,
      "lng": 145.8562428,
      "label": "Arnot Street, Bonnie Doon, Victoria, 3720, Australia",
      "geocoder": "nominatim",
      "approximate": true,
      "geocodedAt": "2026-05-08T21:46:07.484Z"
    },
    {
      "id": "maroondah-highway-bonnie-doon-1203",
      "location": "Maroondah Highway",
      "suburb": "Bonnie Doon",
      "query": "Maroondah Highway, Bonnie Doon, Victoria, Australia",
      "lat": -37.0251703,
      "lng": 145.8795002,
      "label": "Maroondah Highway, Bonnie Doon, Victoria, 3720, Australia",
      "geocoder": "nominatim",
      "approximate": true,
      "geocodedAt": "2026-05-08T22:16:51.939Z"
    },
    {
      "id": "hume-freeway-boralma-949",
      "location": "Hume Freeway",
      "suburb": "Boralma",
      "query": "Hume Freeway, Boralma, Victoria, Australia",
      "lat": -36.2453007,
      "lng": 146.429509,
      "label": "Hume Freeway, Boralma, Springhurst, Victoria, 3682, Australia",
      "geocoder": "nominatim",
      "approximate": true,
      "geocodedAt": "2026-05-08T22:10:11.447Z"
    },
    {
      "id": "albert-avenue-boronia-9",
      "location": "Albert Avenue",
      "suburb": "Boronia",
      "query": "Albert Avenue, Boronia, Victoria, Australia",
      "lat": -37.8626432,
      "lng": 145.2916329,
      "label": "Albert Avenue, Boronia, Melbourne, Victoria, 3155, Australia",
      "geocoder": "nominatim",
      "approximate": true,
      "geocodedAt": "2026-05-08T21:45:22.588Z"
    },
    {
      "id": "harcourt-road-boronia-835",
      "location": "Harcourt Road",
      "suburb": "Boronia",
      "query": "Harcourt Road, Boronia, Victoria, Australia",
      "lat": -37.8594467,
      "lng": 145.2981309,
      "label": "Harcourt Road, Boronia, Melbourne, Victoria, 3155, Australia",
      "geocoder": "nominatim",
      "approximate": true,
      "geocodedAt": "2026-05-08T22:07:12.490Z"
    },
    {
      "id": "mountain-highway-boronia-1368",
      "location": "Mountain Highway",
      "suburb": "Boronia",
      "query": "Mountain Highway, Boronia, Victoria, Australia",
      "lat": -37.8442343,
      "lng": 145.3001826,
      "label": "Mountain Highway, Boronia, Melbourne, City of Knox, Victoria, 3155, Australia",
      "geocoder": "nominatim",
      "approximate": true,
      "geocodedAt": "2026-05-08T22:21:12.249Z"
    },
    {
      "id": "browns-road-botanic-ridge-248",
      "location": "Browns Road",
      "suburb": "Botanic Ridge",
      "query": "Browns Road, Botanic Ridge, Victoria, Australia",
      "lat": -38.1478337,
      "lng": 145.2457999,
      "label": "Browns Road, Botanic Ridge, Melbourne, Victoria, 3977, Australia",
      "geocoder": "nominatim",
      "approximate": true,
      "geocodedAt": "2026-05-08T21:51:45.225Z"
    },
    {
      "id": "murray-valley-highway-boundary-bend-1421",
      "location": "Murray Valley Highway",
      "suburb": "Boundary Bend",
      "query": "Murray Valley Highway, Boundary Bend, Victoria, Australia",
      "lat": -34.7071626,
      "lng": 143.0724891,
      "label": "Murray Valley Highway, Boundary Bend, Victoria, 3599, Australia",
      "geocoder": "nominatim",
      "approximate": true,
      "geocodedAt": "2026-05-08T22:22:37.357Z"
    },
    {
      "id": "great-alpine-road-bowmans-forest-778",
      "location": "Great Alpine Road",
      "suburb": "Bowmans Forest",
      "query": "Great Alpine Road, Bowmans Forest, Victoria, Australia",
      "lat": -36.4692884,
      "lng": 146.5901326,
      "label": "Great Alpine Road, Bowmans Forest, Victoria, 3735, Australia",
      "geocoder": "nominatim",
      "approximate": true,
      "geocodedAt": "2026-05-08T22:05:43.616Z"
    },
    {
      "id": "federation-way-bowser-619",
      "location": "Federation Way",
      "suburb": "Bowser",
      "query": "Federation Way, Bowser, Victoria, Australia",
      "lat": -36.2172052,
      "lng": 146.379461,
      "label": "Federation Way, Boralma, Rural City of Wangaratta, Victoria, 3682, Australia",
      "geocoder": "nominatim",
      "approximate": true,
      "geocodedAt": "2026-05-08T22:01:32.344Z"
    },
    {
      "id": "hume-freeway-bowser-950",
      "location": "Hume Freeway",
      "suburb": "Bowser",
      "query": "Hume Freeway, Bowser, Victoria, Australia",
      "lat": -36.3084899,
      "lng": 146.3760801,
      "label": "Hume Freeway, Bowser, Victoria, 3678, Australia",
      "geocoder": "nominatim",
      "approximate": true,
      "geocodedAt": "2026-05-08T22:10:12.913Z"
    },
    {
      "id": "canterbury-road-box-hill-344",
      "location": "Canterbury Road",
      "suburb": "Box Hill",
      "query": "Canterbury Road, Box Hill, Victoria, Australia",
      "lat": -37.830239,
      "lng": 145.1349923,
      "label": "Canterbury Road, Box Hill, Melbourne, Victoria, 3128, Australia",
      "geocoder": "nominatim",
      "approximate": true,
      "geocodedAt": "2026-05-08T21:54:18.891Z"
    },
    {
      "id": "station-street-box-hill-north-1896",
      "location": "Station Street",
      "suburb": "Box Hill North",
      "query": "Station Street, Box Hill North, Victoria, Australia",
      "lat": -37.8126022,
      "lng": 145.1249658,
      "label": "Station Street, Box Hill North, Melbourne, Victoria, 3129, Australia",
      "geocoder": "nominatim",
      "approximate": true,
      "geocodedAt": "2026-05-08T22:35:36.897Z"
    },
    {
      "id": "elgar-road-box-hill-south-577",
      "location": "Elgar Road",
      "suburb": "Box Hill South",
      "query": "Elgar Road, Box Hill South, Victoria, Australia",
      "lat": -37.8281921,
      "lng": 145.1128316,
      "label": "Elgar Road, Box Hill South, Melbourne, Victoria, 3128, Australia",
      "geocoder": "nominatim",
      "approximate": true,
      "geocodedAt": "2026-05-08T22:00:26.961Z"
    },
    {
      "id": "station-street-box-hill-south-1897",
      "location": "Station Street",
      "suburb": "Box Hill South",
      "query": "Station Street, Box Hill South, Victoria, Australia",
      "lat": -37.8291354,
      "lng": 145.1217551,
      "label": "Station Street, Box Hill South, Melbourne, Victoria, 3128, Australia",
      "geocoder": "nominatim",
      "approximate": true,
      "geocodedAt": "2026-05-08T22:35:38.451Z"
    },
    {
      "id": "station-street-box-hill-1895",
      "location": "Station Street",
      "suburb": "Box Hill",
      "query": "Station Street, Box Hill, Victoria, Australia",
      "lat": -37.8283007,
      "lng": 145.1219052,
      "label": "Station Street, Box Hill, Melbourne, Victoria, 3128, Australia",
      "geocoder": "nominatim",
      "approximate": true,
      "geocodedAt": "2026-05-08T22:35:35.453Z"
    },
    {
      "id": "boundary-road-braeside-203",
      "location": "Boundary Road",
      "suburb": "Braeside",
      "query": "Boundary Road, Braeside, Victoria, Australia",
      "lat": -38.0095953,
      "lng": 145.1035993,
      "label": "Boundary Road, Braeside, Melbourne, Victoria, 3195, Australia",
      "geocoder": "nominatim",
      "approximate": true,
      "geocodedAt": "2026-05-08T21:50:32.686Z"
    },
    {
      "id": "governor-road-braeside-756",
      "location": "Governor Road",
      "suburb": "Braeside",
      "query": "Governor Road, Braeside, Victoria, Australia",
      "lat": -38.0087115,
      "lng": 145.1158824,
      "label": "Governor Road, Braeside, Melbourne, City of Kingston, Victoria, 3195, Australia",
      "geocoder": "nominatim",
      "approximate": true,
      "geocodedAt": "2026-05-08T22:05:09.243Z"
    },
    {
      "id": "henty-highway-branxholme-869",
      "location": "Henty Highway",
      "suburb": "Branxholme",
      "query": "Henty Highway, Branxholme, Victoria, Australia",
      "lat": -37.8775012,
      "lng": 141.7960687,
      "label": "Henty Highway, Branxholme, Victoria, 3302, Australia",
      "geocoder": "nominatim",
      "approximate": true,
      "geocodedAt": "2026-05-08T22:08:05.713Z"
    },
    {
      "id": "ballarat-road-braybrook-71",
      "location": "Ballarat Road",
      "suburb": "Braybrook",
      "query": "Ballarat Road, Braybrook, Victoria, Australia",
      "lat": -37.7791178,
      "lng": 144.8483327,
      "label": "Ballarat Road, Braybrook, Melbourne, Victoria, 3019, Australia",
      "geocoder": "nominatim",
      "approximate": true,
      "geocodedAt": "2026-05-08T21:47:01.400Z"
    },
    {
      "id": "churchill-avenue-braybrook-397",
      "location": "Churchill Avenue",
      "suburb": "Braybrook",
      "query": "Churchill Avenue, Braybrook, Victoria, Australia",
      "lat": -37.7856359,
      "lng": 144.8569502,
      "label": "Churchill Avenue, Braybrook, Melbourne, Victoria, 3019, Australia",
      "geocoder": "nominatim",
      "approximate": true,
      "geocodedAt": "2026-05-08T21:55:41.254Z"
    },
    {
      "id": "fellmongers-road-breakwater-620",
      "location": "Fellmongers Road",
      "suburb": "Breakwater",
      "query": "Fellmongers Road, Breakwater, Victoria, Australia",
      "lat": -38.1801589,
      "lng": 144.3818812,
      "label": "Fellmongers Road, Breakwater, Geelong, Victoria, 3219, Australia",
      "geocoder": "nominatim",
      "approximate": true,
      "geocodedAt": "2026-05-08T22:01:34.055Z"
    },
    {
      "id": "mansfield-whitfield-road-bridge-creek-1181",
      "location": "Mansfield Whitfield Road",
      "suburb": "Bridge Creek",
      "query": "Mansfield Whitfield Road, Bridge Creek, Victoria, Australia",
      "lat": -36.9680527,
      "lng": 146.120169,
      "label": "Mansfield - Whitfield Road, Bridge Creek, Victoria, 3723, Australia",
      "geocoder": "nominatim",
      "approximate": true,
      "geocodedAt": "2026-05-08T22:16:17.401Z"
    },